{"type":"FeatureCollection","features":[{"type":"Feature","geometry":{"type":"Point","coordinates":[92.307806,21.647833]},"properties":{"name":"BBALK1","tx":"Fiber"}},{"type":"Feature","geometry":{"type":"Point","coordinates":[92.319861,21.652556]},"properties":{"name":"BBALK2","tx":"Fiber"}},{"type":"Feature","geometry":{"type":"Point","coordinates":[92.25018,22.09642]},"properties":{"name":"BBALY1","tx":"Fiber"}},{"type":"Feature","geometry":{"type":"Point","coordinates":[92.210417,22.213917]},"properties":{"name":"BBBKT1","tx":"Fiber"}},{"type":"Feature","geometry":{"type":"Point","coordinates":[92.22196,22.19921]},"properties":{"name":"BBBLG1","tx":"Fiber"}},{"type":"Feature","geometry":{"type":"Point","coordinates":[92.39373,21.88557]},"properties":{"name":"BBBLP1","tx":"Fiber"}},{"type":"Feature","geometry":{"type":"Point","coordinates":[92.173889,21.512778]},"properties":{"name":"BBBSR1","tx":"Fiber"}},{"type":"Feature","geometry":{"type":"Point","coordinates":[92.277694,22.050639]},"properties":{"name":"BBCMBT","tx":"Fiber"}},{"type":"Feature","geometry":{"type":"Point","coordinates":[92.20147,21.76452]},"properties":{"name":"BBDDR1","tx":"MW"}},{"type":"Feature","geometry":{"type":"Point","coordinates":[92.156056,22.256389]},"properties":{"name":"BBKHL1","tx":"Fiber"}},{"type":"Feature","geometry":{"type":"Point","coordinates":[92.266417,22.206083]},"properties":{"name":"BBKSP1","tx":"MW"}},{"type":"Feature","geometry":{"type":"Point","coordinates":[92.19475,21.77725]},"properties":{"name":"BBLMB1","tx":"Fiber"}},{"type":"Feature","geometry":{"type":"Point","coordinates":[92.213444,21.753722]},"properties":{"name":"BBLZB1","tx":"Fiber"}},{"type":"Feature","geometry":{"type":"Point","coordinates":[92.31321,21.63409]},"properties":{"name":"BBMMR1","tx":"Fiber"}},{"type":"Feature","geometry":{"type":"Point","coordinates":[92.193805,21.744778]},"properties":{"name":"BBMRJ1","tx":"Fiber"}},{"type":"Feature","geometry":{"type":"Point","coordinates":[92.204833,22.183056]},"properties":{"name":"BBMWV1","tx":"Fiber"}},{"type":"Feature","geometry":{"type":"Point","coordinates":[92.176389,21.426778]},"properties":{"name":"BBNKC1","tx":"Fiber"}},{"type":"Feature","geometry":{"type":"Point","coordinates":[92.20087,21.37091]},"properties":{"name":"BBNKC2","tx":"Fiber"}},{"type":"Feature","geometry":{"type":"Point","coordinates":[92.209722,22.168694]},"properties":{"name":"BBNLCM","tx":"Fiber"}},{"type":"Feature","geometry":{"type":"Point","coordinates":[92.323778,21.905333]},"properties":{"name":"BBNLG1","tx":"Fiber"}},{"type":"Feature","geometry":{"type":"Point","coordinates":[92.216694,21.921972]},"properties":{"name":"BBQFD1","tx":"MW"}},{"type":"Feature","geometry":{"type":"Point","coordinates":[92.176111,22.164583]},"properties":{"name":"BBRCB1","tx":"Fiber"}},{"type":"Feature","geometry":{"type":"Point","coordinates":[92.250811,21.697133]},"properties":{"name":"BBREF1","tx":"Fiber"}},{"type":"Feature","geometry":{"type":"Point","coordinates":[92.409472,22.048914]},"properties":{"name":"BBRMB1","tx":"Fiber"}},{"type":"Feature","geometry":{"type":"Point","coordinates":[92.3381944,22.1708333]},"properties":{"name":"BBRNC1","tx":"Fiber"}},{"type":"Feature","geometry":{"type":"Point","coordinates":[92.21984,22.1878]},"properties":{"name":"BBTRC1","tx":"Fiber"}},{"type":"Feature","geometry":{"type":"Point","coordinates":[92.218917,22.196333]},"properties":{"name":"BBTWN1","tx":"Fiber"}},{"type":"Feature","geometry":{"type":"Point","coordinates":[92.215806,22.191806]},"properties":{"name":"BBTWN2","tx":"Fiber"}},{"type":"Feature","geometry":{"type":"Point","coordinates":[92.226667,22.1885]},"properties":{"name":"BBTWN3","tx":"Fiber"}},{"type":"Feature","geometry":{"type":"Point","coordinates":[92.223139,22.194389]},"properties":{"name":"BBTWN4","tx":"Fiber"}},{"type":"Feature","geometry":{"type":"Point","coordinates":[89.911639,22.678722]},"properties":{"name":"BGADM1","tx":"MW"}},{"type":"Feature","geometry":{"type":"Point","coordinates":[89.741417,22.72375]},"properties":{"name":"BGAFR1","tx":"MW"}},{"type":"Feature","geometry":{"type":"Point","coordinates":[89.811361,22.334028]},"properties":{"name":"BGAMR1","tx":"Fiber"}},{"type":"Feature","geometry":{"type":"Point","coordinates":[89.780056,22.770917]},"properties":{"name":"BGAPK1","tx":"MW"}},{"type":"Feature","geometry":{"type":"Point","coordinates":[89.903444,22.462417]},"properties":{"name":"BGBBD1","tx":"MW"}},{"type":"Feature","geometry":{"type":"Point","coordinates":[89.871139,22.857944]},"properties":{"name":"BGBBR1","tx":"MW"}},{"type":"Feature","geometry":{"type":"Point","coordinates":[89.605833,22.570278]},"properties":{"name":"BGBBR2","tx":"MW"}},{"type":"Feature","geometry":{"type":"Point","coordinates":[89.79505,22.65114]},"properties":{"name":"BGBBT1","tx":"MW"}},{"type":"Feature","geometry":{"type":"Point","coordinates":[89.590833,22.529833]},"properties":{"name":"BGBBZ1","tx":"Fiber"}},{"type":"Feature","geometry":{"type":"Point","coordinates":[89.790278,22.654361]},"properties":{"name":"BGBC1M","tx":"Fiber"}},{"type":"Feature","geometry":{"type":"Point","coordinates":[89.894556,22.599611]},"properties":{"name":"BGBDB1","tx":"MW"}},{"type":"Feature","geometry":{"type":"Point","coordinates":[89.88072,22.60247]},"properties":{"name":"BGBDB2","tx":"MW"}},{"type":"Feature","geometry":{"type":"Point","coordinates":[89.830444,22.910194]},"properties":{"name":"BGBDK1","tx":"MW"}},{"type":"Feature","geometry":{"type":"Point","coordinates":[89.653083,22.399472]},"properties":{"name":"BGBDM1","tx":"MW"}},{"type":"Feature","geometry":{"type":"Point","coordinates":[89.565528,22.586917]},"properties":{"name":"BGBDP1","tx":"Fiber"}},{"type":"Feature","geometry":{"type":"Point","coordinates":[89.830806,22.432972]},"properties":{"name":"BGBDT1","tx":"Fiber"}},{"type":"Feature","geometry":{"type":"Point","coordinates":[89.897528,22.435917]},"properties":{"name":"BGBDV1","tx":"MW"}},{"type":"Feature","geometry":{"type":"Point","coordinates":[89.567889,22.528417]},"properties":{"name":"BGBJA1","tx":"MW"}},{"type":"Feature","geometry":{"type":"Point","coordinates":[89.840167,22.752472]},"properties":{"name":"BGBKG1","tx":"Fiber"}},{"type":"Feature","geometry":{"type":"Point","coordinates":[89.833041,22.330636]},"properties":{"name":"BGBKL1","tx":"MW"}},{"type":"Feature","geometry":{"type":"Point","coordinates":[89.914,22.805694]},"properties":{"name":"BGBLA1","tx":"MW"}},{"type":"Feature","geometry":{"type":"Point","coordinates":[89.809694,22.302278]},"properties":{"name":"BGBLB1","tx":"MW"}},{"type":"Feature","geometry":{"type":"Point","coordinates":[89.651167,22.680472]},"properties":{"name":"BGBLG1","tx":"Fiber"}},{"type":"Feature","geometry":{"type":"Point","coordinates":[89.81075,22.649722]},"properties":{"name":"BGBMT1","tx":"MW"}},{"type":"Feature","geometry":{"type":"Point","coordinates":[89.821167,22.711361]},"properties":{"name":"BGBNP1","tx":"MW"}},{"type":"Feature","geometry":{"type":"Point","coordinates":[89.881778,22.837639]},"properties":{"name":"BGBRB1","tx":"MW"}},{"type":"Feature","geometry":{"type":"Point","coordinates":[89.82909,22.85224]},"properties":{"name":"BGBRB2","tx":"MW"}},{"type":"Feature","geometry":{"type":"Point","coordinates":[89.845611,22.883361]},"properties":{"name":"BGBRG1","tx":"MW"}},{"type":"Feature","geometry":{"type":"Point","coordinates":[89.743944,22.7565]},"properties":{"name":"BGBRI1","tx":"MW"}},{"type":"Feature","geometry":{"type":"Point","coordinates":[89.732583,22.769278]},"properties":{"name":"BGBRI2","tx":"MW"}},{"type":"Feature","geometry":{"type":"Point","coordinates":[89.839278,22.398306]},"properties":{"name":"BGBRK1","tx":"Fiber"}},{"type":"Feature","geometry":{"type":"Point","coordinates":[89.638472,22.65875]},"properties":{"name":"BGBRP1","tx":"Fiber"}},{"type":"Feature","geometry":{"type":"Point","coordinates":[89.902083,22.56375]},"properties":{"name":"BGBRS1","tx":"MW"}},{"type":"Feature","geometry":{"type":"Point","coordinates":[89.724333,22.554444]},"properties":{"name":"BGBSB1","tx":"MW"}},{"type":"Feature","geometry":{"type":"Point","coordinates":[89.696167,22.551472]},"properties":{"name":"BGBST1","tx":"MW"}},{"type":"Feature","geometry":{"type":"Point","coordinates":[89.625361,22.710889]},"properties":{"name":"BGBTG1","tx":"MW"}},{"type":"Feature","geometry":{"type":"Point","coordinates":[89.714833,22.512417]},"properties":{"name":"BGBTK1","tx":"MW"}},{"type":"Feature","geometry":{"type":"Point","coordinates":[89.809944,22.634778]},"properties":{"name":"BGBTP1","tx":"MW"}},{"type":"Feature","geometry":{"type":"Point","coordinates":[89.929528,22.532556]},"properties":{"name":"BGCGK1","tx":"MW"}},{"type":"Feature","geometry":{"type":"Point","coordinates":[89.744361,22.817361]},"properties":{"name":"BGCKD1","tx":"MW"}},{"type":"Feature","geometry":{"type":"Point","coordinates":[89.79275,22.544472]},"properties":{"name":"BGCKJ1","tx":"MW"}},{"type":"Feature","geometry":{"type":"Point","coordinates":[89.762778,22.897778]},"properties":{"name":"BGCKL1","tx":"MW"}},{"type":"Feature","geometry":{"type":"Point","coordinates":[89.70175,22.639694]},"properties":{"name":"BGCKR1","tx":"MW"}},{"type":"Feature","geometry":{"type":"Point","coordinates":[89.650917,22.698194]},"properties":{"name":"BGCLK1","tx":"Fiber"}},{"type":"Feature","geometry":{"type":"Point","coordinates":[89.694806,22.706833]},"properties":{"name":"BGCNB1","tx":"Fiber"}},{"type":"Feature","geometry":{"type":"Point","coordinates":[89.90225,22.876083]},"properties":{"name":"BGCNG1","tx":"MW"}},{"type":"Feature","geometry":{"type":"Point","coordinates":[89.796231,22.6559]},"properties":{"name":"BGCOS1","tx":"MW"}},{"type":"Feature","geometry":{"type":"Point","coordinates":[89.802972,22.647778]},"properties":{"name":"BGCOS2","tx":"MW"}},{"type":"Feature","geometry":{"type":"Point","coordinates":[89.816611,22.493889]},"properties":{"name":"BGCPK1","tx":"MW"}},{"type":"Feature","geometry":{"type":"Point","coordinates":[89.844639,22.506083]},"properties":{"name":"BGCPK2","tx":"MW"}},{"type":"Feature","geometry":{"type":"Point","coordinates":[89.837167,22.571028]},"properties":{"name":"BGCTG1","tx":"MW"}},{"type":"Feature","geometry":{"type":"Point","coordinates":[89.86,22.8]},"properties":{"name":"BGCTL1","tx":"MW"}},{"type":"Feature","geometry":{"type":"Point","coordinates":[89.876667,22.790139]},"properties":{"name":"BGCTM1","tx":"Fiber"}},{"type":"Feature","geometry":{"type":"Point","coordinates":[89.866111,22.821472]},"properties":{"name":"BGCTM2","tx":"MW"}},{"type":"Feature","geometry":{"type":"Point","coordinates":[89.857278,22.531111]},"properties":{"name":"BGDBG1","tx":"MW"}},{"type":"Feature","geometry":{"type":"Point","coordinates":[89.86375,22.562917]},"properties":{"name":"BGDBH1","tx":"Fiber"}},{"type":"Feature","geometry":{"type":"Point","coordinates":[89.800833,22.912278]},"properties":{"name":"BGDBL1","tx":"Fiber"}},{"type":"Feature","geometry":{"type":"Point","coordinates":[89.61,22.663]},"properties":{"name":"BGDIP1","tx":"MW"}},{"type":"Feature","geometry":{"type":"Point","coordinates":[89.612889,22.717389]},"properties":{"name":"BGDNP1","tx":"MW"}},{"type":"Feature","geometry":{"type":"Point","coordinates":[89.847278,22.712139]},"properties":{"name":"BGDPR1","tx":"Fiber"}},{"type":"Feature","geometry":{"type":"Point","coordinates":[89.812556,22.362444]},"properties":{"name":"BGDSR1","tx":"MW"}},{"type":"Feature","geometry":{"type":"Point","coordinates":[89.784278,22.499361]},"properties":{"name":"BGFHT1","tx":"MW"}},{"type":"Feature","geometry":{"type":"Point","coordinates":[89.712567,22.776126]},"properties":{"name":"BGFKH1","tx":"MW"}},{"type":"Feature","geometry":{"type":"Point","coordinates":[89.643194,22.73575]},"properties":{"name":"BGFKH2","tx":"Fiber"}},{"type":"Feature","geometry":{"type":"Point","coordinates":[89.702417,22.778278]},"properties":{"name":"BGFKH3","tx":"Fiber"}},{"type":"Feature","geometry":{"type":"Point","coordinates":[89.660583,22.754528]},"properties":{"name":"BGFKH4","tx":"MW"}},{"type":"Feature","geometry":{"type":"Point","coordinates":[89.644639,22.634167]},"properties":{"name":"BGFLA1","tx":"Fiber"}},{"type":"Feature","geometry":{"type":"Point","coordinates":[89.743833,22.795833]},"properties":{"name":"BGFLT1","tx":"MW"}},{"type":"Feature","geometry":{"type":"Point","coordinates":[89.728778,22.418722]},"properties":{"name":"BGGDR1","tx":"Fiber"}},{"type":"Feature","geometry":{"type":"Point","coordinates":[89.730361,22.895944]},"properties":{"name":"BGGGN1","tx":"MW"}},{"type":"Feature","geometry":{"type":"Point","coordinates":[89.7535,22.851806]},"properties":{"name":"BGGLA1","tx":"MW"}},{"type":"Feature","geometry":{"type":"Point","coordinates":[89.787944,22.403389]},"properties":{"name":"BGGLK1","tx":"Fiber"}},{"type":"Feature","geometry":{"type":"Point","coordinates":[89.716253,22.87803]},"properties":{"name":"BGGNG1","tx":"Fiber"}},{"type":"Feature","geometry":{"type":"Point","coordinates":[89.876139,22.625778]},"properties":{"name":"BGGPP1","tx":"MW"}},{"type":"Feature","geometry":{"type":"Point","coordinates":[89.574028,22.659944]},"properties":{"name":"BGGRB1","tx":"MW"}},{"type":"Feature","geometry":{"type":"Point","coordinates":[89.779361,22.950139]},"properties":{"name":"BGGRD1","tx":"Fiber"}},{"type":"Feature","geometry":{"type":"Point","coordinates":[89.887194,22.723389]},"properties":{"name":"BGGZL1","tx":"MW"}},{"type":"Feature","geometry":{"type":"Point","coordinates":[89.794472,22.745167]},"properties":{"name":"BGHDH1","tx":"MW"}},{"type":"Feature","geometry":{"type":"Point","coordinates":[89.648528,22.434944]},"properties":{"name":"BGHLD1","tx":"MW"}},{"type":"Feature","geometry":{"type":"Point","coordinates":[89.786306,22.66675]},"properties":{"name":"BGHSP1","tx":"MW"}},{"type":"Feature","geometry":{"type":"Point","coordinates":[89.64375,22.370528]},"properties":{"name":"BGJMG1","tx":"MW"}},{"type":"Feature","geometry":{"type":"Point","coordinates":[89.645611,22.598306]},"properties":{"name":"BGJNJ1","tx":"MW"}},{"type":"Feature","geometry":{"type":"Point","coordinates":[89.756944,22.715583]},"properties":{"name":"BGJTP1","tx":"Fiber"}},{"type":"Feature","geometry":{"type":"Point","coordinates":[89.913111,22.589944]},"properties":{"name":"BGKBL1","tx":"MW"}},{"type":"Feature","geometry":{"type":"Point","coordinates":[89.942056,22.5655]},"properties":{"name":"BGKBP1","tx":"MW"}},{"type":"Feature","geometry":{"type":"Point","coordinates":[89.881667,22.651389]},"properties":{"name":"BGKCA1","tx":"Fiber"}},{"type":"Feature","geometry":{"type":"Point","coordinates":[89.809944,22.852917]},"properties":{"name":"BGKDL1","tx":"MW"}},{"type":"Feature","geometry":{"type":"Point","coordinates":[89.81127,22.89881]},"properties":{"name":"BGKGM1","tx":"MW"}},{"type":"Feature","geometry":{"type":"Point","coordinates":[89.759639,22.665028]},"properties":{"name":"BGKJA1","tx":"MW"}},{"type":"Feature","geometry":{"type":"Point","coordinates":[89.767194,22.66025]},"properties":{"name":"BGKJA2","tx":"MW"}},{"type":"Feature","geometry":{"type":"Point","coordinates":[89.5885,22.612667]},"properties":{"name":"BGKLB1","tx":"MW"}},{"type":"Feature","geometry":{"type":"Point","coordinates":[89.912389,22.750083]},"properties":{"name":"BGKLJ1","tx":"MW"}},{"type":"Feature","geometry":{"type":"Point","coordinates":[89.862889,22.485833]},"properties":{"name":"BGKLK1","tx":"Fiber"}},{"type":"Feature","geometry":{"type":"Point","coordinates":[89.836194,22.802389]},"properties":{"name":"BGKLS1","tx":"MW"}},{"type":"Feature","geometry":{"type":"Point","coordinates":[89.682056,22.621667]},"properties":{"name":"BGKML1","tx":"MW"}},{"type":"Feature","geometry":{"type":"Point","coordinates":[89.840639,22.679694]},"properties":{"name":"BGKND1","tx":"MW"}},{"type":"Feature","geometry":{"type":"Point","coordinates":[89.611361,22.432111]},"properties":{"name":"BGKNM1","tx":"MW"}},{"type":"Feature","geometry":{"type":"Point","coordinates":[89.7643,22.64252]},"properties":{"name":"BGKRP1","tx":"MW"}},{"type":"Feature","geometry":{"type":"Point","coordinates":[89.891778,22.760278]},"properties":{"name":"BGKSH1","tx":"MW"}},{"type":"Feature","geometry":{"type":"Point","coordinates":[89.89,22.78]},"properties":{"name":"BGKSH2","tx":"MW"}},{"type":"Feature","geometry":{"type":"Point","coordinates":[89.757304,22.600918]},"properties":{"name":"BGKSM1","tx":"MW"}},{"type":"Feature","geometry":{"type":"Point","coordinates":[89.769778,22.734194]},"properties":{"name":"BGKTD1","tx":"MW"}},{"type":"Feature","geometry":{"type":"Point","coordinates":[89.844833,22.649667]},"properties":{"name":"BGKTL1","tx":"MW"}},{"type":"Feature","geometry":{"type":"Point","coordinates":[89.717417,22.753611]},"properties":{"name":"BGKTT1","tx":"MW"}},{"type":"Feature","geometry":{"type":"Point","coordinates":[89.686667,22.752528]},"properties":{"name":"BGLCP1","tx":"MW"}},{"type":"Feature","geometry":{"type":"Point","coordinates":[89.628194,22.741222]},"properties":{"name":"BGLKP1","tx":"MW"}},{"type":"Feature","geometry":{"type":"Point","coordinates":[89.753833,22.468194]},"properties":{"name":"BGMDR1","tx":"MW"}},{"type":"Feature","geometry":{"type":"Point","coordinates":[89.585743,22.520301]},"properties":{"name":"BGMG2B","tx":"Fiber"}},{"type":"Feature","geometry":{"type":"Point","coordinates":[89.605694,22.473028]},"properties":{"name":"BGMGA1","tx":"Fiber"}},{"type":"Feature","geometry":{"type":"Point","coordinates":[89.610556,22.467028]},"properties":{"name":"BGMGA2","tx":"MW"}},{"type":"Feature","geometry":{"type":"Point","coordinates":[89.586528,22.515389]},"properties":{"name":"BGMGA3","tx":"MW"}},{"type":"Feature","geometry":{"type":"Point","coordinates":[89.596944,22.496833]},"properties":{"name":"BGMGA4","tx":"MW"}},{"type":"Feature","geometry":{"type":"Point","coordinates":[89.618861,22.471028]},"properties":{"name":"BGMGA5","tx":"MW"}},{"type":"Feature","geometry":{"type":"Point","coordinates":[89.61493,22.47666]},"properties":{"name":"BGMGA6","tx":"MW"}},{"type":"Feature","geometry":{"type":"Point","coordinates":[89.59811,22.506427]},"properties":{"name":"BGMGA7","tx":"MW"}},{"type":"Feature","geometry":{"type":"Point","coordinates":[89.59657,22.48808]},"properties":{"name":"BGMGA8","tx":"MW"}},{"type":"Feature","geometry":{"type":"Point","coordinates":[89.602694,22.465806]},"properties":{"name":"BGMGA9","tx":"Fiber"}},{"type":"Feature","geometry":{"type":"Point","coordinates":[89.746594,22.685275]},"properties":{"name":"BGMGR1","tx":"MW"}},{"type":"Feature","geometry":{"type":"Point","coordinates":[89.642389,22.486278]},"properties":{"name":"BGMKL1","tx":"MW"}},{"type":"Feature","geometry":{"type":"Point","coordinates":[89.794472,22.703472]},"properties":{"name":"BGMKT1","tx":"Fiber"}},{"type":"Feature","geometry":{"type":"Point","coordinates":[89.866056,22.351139]},"properties":{"name":"BGMLB1","tx":"MW"}},{"type":"Feature","geometry":{"type":"Point","coordinates":[89.803833,22.931556]},"properties":{"name":"BGMLH1","tx":"MW"}},{"type":"Feature","geometry":{"type":"Point","coordinates":[89.78,22.91]},"properties":{"name":"BGMLK1","tx":"MW"}},{"type":"Feature","geometry":{"type":"Point","coordinates":[89.694659,22.45418]},"properties":{"name":"BGMLL1","tx":"MW"}},{"type":"Feature","geometry":{"type":"Point","coordinates":[89.838806,22.736]},"properties":{"name":"BGMND1","tx":"MW"}},{"type":"Feature","geometry":{"type":"Point","coordinates":[89.673833,22.79475]},"properties":{"name":"BGMNS1","tx":"MW"}},{"type":"Feature","geometry":{"type":"Point","coordinates":[89.792944,22.87775]},"properties":{"name":"BGMNZ1","tx":"MW"}},{"type":"Feature","geometry":{"type":"Point","coordinates":[89.856806,22.456028]},"properties":{"name":"BGMRG1","tx":"Fiber"}},{"type":"Feature","geometry":{"type":"Point","coordinates":[89.857556,22.452806]},"properties":{"name":"BGMRG2","tx":"MW"}},{"type":"Feature","geometry":{"type":"Point","coordinates":[89.862619,22.415636]},"properties":{"name":"BGMRG4","tx":"MW"}},{"type":"Feature","geometry":{"type":"Point","coordinates":[89.8553,22.44532]},"properties":{"name":"BGMRG5","tx":"MW"}},{"type":"Feature","geometry":{"type":"Point","coordinates":[89.851944,22.844222]},"properties":{"name":"BGNLU1","tx":"MW"}},{"type":"Feature","geometry":{"type":"Point","coordinates":[89.818778,22.683278]},"properties":{"name":"BGNOP1","tx":"MW"}},{"type":"Feature","geometry":{"type":"Point","coordinates":[89.748333,22.867583]},"properties":{"name":"BGNSK1","tx":"MW"}},{"type":"Feature","geometry":{"type":"Point","coordinates":[89.814361,22.399417]},"properties":{"name":"BGPCB1","tx":"MW"}},{"type":"Feature","geometry":{"type":"Point","coordinates":[89.781944,22.664028]},"properties":{"name":"BGPCC1","tx":"MW"}},{"type":"Feature","geometry":{"type":"Point","coordinates":[89.880539,22.5244]},"properties":{"name":"BGPLH1","tx":"MW"}},{"type":"Feature","geometry":{"type":"Point","coordinates":[89.658306,22.727778]},"properties":{"name":"BGPLN1","tx":"MW"}},{"type":"Feature","geometry":{"type":"Point","coordinates":[89.681694,22.7355]},"properties":{"name":"BGPLN2","tx":"MW"}},{"type":"Feature","geometry":{"type":"Point","coordinates":[89.590838,22.545586]},"properties":{"name":"BGPM1B","tx":"Fiber"}},{"type":"Feature","geometry":{"type":"Point","coordinates":[89.649917,22.535694]},"properties":{"name":"BGPRK1","tx":"MW"}},{"type":"Feature","geometry":{"type":"Point","coordinates":[89.9025,22.540833]},"properties":{"name":"BGRCP1","tx":"MW"}},{"type":"Feature","geometry":{"type":"Point","coordinates":[89.779222,22.335889]},"properties":{"name":"BGRJP1","tx":"MW"}},{"type":"Feature","geometry":{"type":"Point","coordinates":[89.652361,22.558917]},"properties":{"name":"BGRMP1","tx":"Fiber"}},{"type":"Feature","geometry":{"type":"Point","coordinates":[89.695972,22.594611]},"properties":{"name":"BGRMP2","tx":"MW"}},{"type":"Feature","geometry":{"type":"Point","coordinates":[89.665056,22.583444]},"properties":{"name":"BGRMP3","tx":"MW"}},{"type":"Feature","geometry":{"type":"Point","coordinates":[89.829559,22.277889]},"properties":{"name":"BGRND1","tx":"MW"}},{"type":"Feature","geometry":{"type":"Point","coordinates":[89.564398,22.592736]},"properties":{"name":"BGRP1L","tx":"MW"}},{"type":"Feature","geometry":{"type":"Point","coordinates":[89.555722,22.596611]},"properties":{"name":"BGRPP1","tx":"MW"}},{"type":"Feature","geometry":{"type":"Point","coordinates":[89.833778,22.623417]},"properties":{"name":"BGRRP1","tx":"MW"}},{"type":"Feature","geometry":{"type":"Point","coordinates":[89.782229,22.298148]},"properties":{"name":"BGRSP1","tx":"MW"}},{"type":"Feature","geometry":{"type":"Point","coordinates":[89.702,22.728222]},"properties":{"name":"BGSAB1","tx":"MW"}},{"type":"Feature","geometry":{"type":"Point","coordinates":[89.715063,22.693583]},"properties":{"name":"BGSB1M","tx":"Fiber"}},{"type":"Feature","geometry":{"type":"Point","coordinates":[89.766111,22.684528]},"properties":{"name":"BGSBD1","tx":"MW"}},{"type":"Feature","geometry":{"type":"Point","coordinates":[89.742278,22.671083]},"properties":{"name":"BGSGM1","tx":"Fiber"}},{"type":"Feature","geometry":{"type":"Point","coordinates":[89.874198,22.461192]},"properties":{"name":"BGSKB1","tx":"MW"}},{"type":"Feature","geometry":{"type":"Point","coordinates":[89.907083,22.85125]},"properties":{"name":"BGSLD1","tx":"MW"}},{"type":"Feature","geometry":{"type":"Point","coordinates":[89.92445,22.83649]},"properties":{"name":"BGSLD2","tx":"MW"}},{"type":"Feature","geometry":{"type":"Point","coordinates":[89.8485,22.6059444]},"properties":{"name":"BGSNB1","tx":"MW"}},{"type":"Feature","geometry":{"type":"Point","coordinates":[89.720639,22.734806]},"properties":{"name":"BGSNG1","tx":"MW"}},{"type":"Feature","geometry":{"type":"Point","coordinates":[89.610944,22.628389]},"properties":{"name":"BGSNK1","tx":"MW"}},{"type":"Feature","geometry":{"type":"Point","coordinates":[89.75975,22.555583]},"properties":{"name":"BGSNR1","tx":"Fiber"}},{"type":"Feature","geometry":{"type":"Point","coordinates":[89.864528,22.393]},"properties":{"name":"BGSNS1","tx":"MW"}},{"type":"Feature","geometry":{"type":"Point","coordinates":[89.78225,22.653194]},"properties":{"name":"BGSNT1","tx":"MW"}},{"type":"Feature","geometry":{"type":"Point","coordinates":[89.847614,22.310921]},"properties":{"name":"BGSRK1","tx":"Fiber"}},{"type":"Feature","geometry":{"type":"Point","coordinates":[89.855204,22.313721]},"properties":{"name":"BGSRK2","tx":"MW"}},{"type":"Feature","geometry":{"type":"Point","coordinates":[89.82114,22.23355]},"properties":{"name":"BGSRK3","tx":"MW"}},{"type":"Feature","geometry":{"type":"Point","coordinates":[89.83815,22.45909]},"properties":{"name":"BGSRL1","tx":"MW"}},{"type":"Feature","geometry":{"type":"Point","coordinates":[89.936694,22.595694]},"properties":{"name":"BGSRP1","tx":"MW"}},{"type":"Feature","geometry":{"type":"Point","coordinates":[89.765317,22.967322]},"properties":{"name":"BGSSN1","tx":"MW"}},{"type":"Feature","geometry":{"type":"Point","coordinates":[89.714583,22.791278]},"properties":{"name":"BGSTT1","tx":"MW"}},{"type":"Feature","geometry":{"type":"Point","coordinates":[89.828972,22.261194]},"properties":{"name":"BGTFL1","tx":"Fiber"}},{"type":"Feature","geometry":{"type":"Point","coordinates":[89.813444,22.217944]},"properties":{"name":"BGTFL2","tx":"MW"}},{"type":"Feature","geometry":{"type":"Point","coordinates":[89.620611,22.763778]},"properties":{"name":"BGTLK1","tx":"Fiber"}},{"type":"Feature","geometry":{"type":"Point","coordinates":[89.9245,22.560194]},"properties":{"name":"BGTLT1","tx":"MW"}},{"type":"Feature","geometry":{"type":"Point","coordinates":[89.907896,22.633234]},"properties":{"name":"BGTRK1","tx":"MW"}},{"type":"Feature","geometry":{"type":"Point","coordinates":[89.804778,22.440722]},"properties":{"name":"BGTTM1","tx":"MW"}},{"type":"Feature","geometry":{"type":"Point","coordinates":[89.7925,22.664722]},"properties":{"name":"BGTWN1","tx":"Fiber"}},{"type":"Feature","geometry":{"type":"Point","coordinates":[89.793333,22.646583]},"properties":{"name":"BGTWN2","tx":"MW"}},{"type":"Feature","geometry":{"type":"Point","coordinates":[89.792583,22.658722]},"properties":{"name":"BGTWN3","tx":"Fiber"}},{"type":"Feature","geometry":{"type":"Point","coordinates":[89.792278,22.671361]},"properties":{"name":"BGTWN4","tx":"MW"}},{"type":"Feature","geometry":{"type":"Point","coordinates":[89.779194,22.658417]},"properties":{"name":"BGTWN5","tx":"Fiber"}},{"type":"Feature","geometry":{"type":"Point","coordinates":[89.78805,22.65081]},"properties":{"name":"BGTWN6","tx":"MW"}},{"type":"Feature","geometry":{"type":"Point","coordinates":[89.785861,22.668944]},"properties":{"name":"BGTWN7","tx":"MW"}},{"type":"Feature","geometry":{"type":"Point","coordinates":[89.8,22.66]},"properties":{"name":"BGTWN8","tx":"MW"}},{"type":"Feature","geometry":{"type":"Point","coordinates":[89.692611,22.675889]},"properties":{"name":"BGUKP1","tx":"MW"}},{"type":"Feature","geometry":{"type":"Point","coordinates":[89.812602,22.459265]},"properties":{"name":"BGUSL1","tx":"MW"}},{"type":"Feature","geometry":{"type":"Point","coordinates":[89.787528,22.780722]},"properties":{"name":"BGUTP1","tx":"MW"}},{"type":"Feature","geometry":{"type":"Point","coordinates":[89.864778,22.688889]},"properties":{"name":"BGVSB1","tx":"MW"}},{"type":"Feature","geometry":{"type":"Point","coordinates":[89.838861,22.524833]},"properties":{"name":"BGVTK1","tx":"MW"}},{"type":"Feature","geometry":{"type":"Point","coordinates":[90.795083,22.206194]},"properties":{"name":"BHABG1","tx":"Fiber"}},{"type":"Feature","geometry":{"type":"Point","coordinates":[90.720472,22.308472]},"properties":{"name":"BHABJ1","tx":"MW"}},{"type":"Feature","geometry":{"type":"Point","coordinates":[90.696593,22.190359]},"properties":{"name":"BHABP1","tx":"MW"}},{"type":"Feature","geometry":{"type":"Point","coordinates":[90.682506,22.027176]},"properties":{"name":"BHACH1","tx":"Fiber"}},{"type":"Feature","geometry":{"type":"Point","coordinates":[90.790306,22.183194]},"properties":{"name":"BHAFZ1","tx":"MW"}},{"type":"Feature","geometry":{"type":"Point","coordinates":[90.7378,22.35696]},"properties":{"name":"BHALB1","tx":"MW"}},{"type":"Feature","geometry":{"type":"Point","coordinates":[90.747972,22.248083]},"properties":{"name":"BHALG1","tx":"MW"}},{"type":"Feature","geometry":{"type":"Point","coordinates":[90.673944,22.152222]},"properties":{"name":"BHAMD1","tx":"MW"}},{"type":"Feature","geometry":{"type":"Point","coordinates":[90.7295,22.162833]},"properties":{"name":"BHAMN1","tx":"MW"}},{"type":"Feature","geometry":{"type":"Point","coordinates":[90.640611,22.110472]},"properties":{"name":"BHANJ1","tx":"Fiber"}},{"type":"Feature","geometry":{"type":"Point","coordinates":[90.63775,22.68]},"properties":{"name":"BHAPB2","tx":"MW"}},{"type":"Feature","geometry":{"type":"Point","coordinates":[90.715083,22.062]},"properties":{"name":"BHATK1","tx":"MW"}},{"type":"Feature","geometry":{"type":"Point","coordinates":[90.79333,22.30225]},"properties":{"name":"BHAZH1","tx":"Fiber"}},{"type":"Feature","geometry":{"type":"Point","coordinates":[90.680556,22.565333]},"properties":{"name":"BHAZM1","tx":"Fiber"}},{"type":"Feature","geometry":{"type":"Point","coordinates":[90.664456,22.560898]},"properties":{"name":"BHAZM2","tx":"MW"}},{"type":"Feature","geometry":{"type":"Point","coordinates":[90.658856,22.590028]},"properties":{"name":"BHBB1Z","tx":"Fiber"}},{"type":"Feature","geometry":{"type":"Point","coordinates":[90.940889,22.178778]},"properties":{"name":"BHBBJ1","tx":"MW"}},{"type":"Feature","geometry":{"type":"Point","coordinates":[90.651153,22.725236]},"properties":{"name":"BHBBP1","tx":"MW"}},{"type":"Feature","geometry":{"type":"Point","coordinates":[90.663,22.589917]},"properties":{"name":"BHBBZ1","tx":"Fiber"}},{"type":"Feature","geometry":{"type":"Point","coordinates":[90.713556,22.179306]},"properties":{"name":"BHBDB1","tx":"MW"}},{"type":"Feature","geometry":{"type":"Point","coordinates":[90.745056,22.488167]},"properties":{"name":"BHBHG1","tx":"Fiber"}},{"type":"Feature","geometry":{"type":"Point","coordinates":[90.786944,22.236944]},"properties":{"name":"BHBHH1","tx":"MW"}},{"type":"Feature","geometry":{"type":"Point","coordinates":[90.581361,22.674778]},"properties":{"name":"BHBKH1","tx":"Fiber"}},{"type":"Feature","geometry":{"type":"Point","coordinates":[90.768694,22.375056]},"properties":{"name":"BHBLC1","tx":"Fiber"}},{"type":"Feature","geometry":{"type":"Point","coordinates":[90.758342,22.359048]},"properties":{"name":"BHBLC2","tx":"MW"}},{"type":"Feature","geometry":{"type":"Point","coordinates":[90.7165,22.53775]},"properties":{"name":"BHBMK1","tx":"MW"}},{"type":"Feature","geometry":{"type":"Point","coordinates":[90.707789,22.515077]},"properties":{"name":"BHBMN1","tx":"MW"}},{"type":"Feature","geometry":{"type":"Point","coordinates":[90.712,22.205722]},"properties":{"name":"BHBNG1","tx":"MW"}},{"type":"Feature","geometry":{"type":"Point","coordinates":[90.647389,22.711972]},"properties":{"name":"BHBPT1","tx":"MW"}},{"type":"Feature","geometry":{"type":"Point","coordinates":[90.628903,22.709268]},"properties":{"name":"BHBPT2","tx":"MW"}},{"type":"Feature","geometry":{"type":"Point","coordinates":[90.715,22.504722]},"properties":{"name":"BHBRU1","tx":"Fiber"}},{"type":"Feature","geometry":{"type":"Point","coordinates":[90.714,22.49425]},"properties":{"name":"BHBRU2","tx":"Fiber"}},{"type":"Feature","geometry":{"type":"Point","coordinates":[90.726472,22.494083]},"properties":{"name":"BHBRU3","tx":"MW"}},{"type":"Feature","geometry":{"type":"Point","coordinates":[90.717867,22.49766]},"properties":{"name":"BHBRU4","tx":"MW"}},{"type":"Feature","geometry":{"type":"Point","coordinates":[90.75816,22.50783]},"properties":{"name":"BHBTM1","tx":"MW"}},{"type":"Feature","geometry":{"type":"Point","coordinates":[90.736714,22.520563]},"properties":{"name":"BHBTT1","tx":"MW"}},{"type":"Feature","geometry":{"type":"Point","coordinates":[90.930806,22.508444]},"properties":{"name":"BHCAD1","tx":"MW"}},{"type":"Feature","geometry":{"type":"Point","coordinates":[90.715704,22.442092]},"properties":{"name":"BHCAG1","tx":"MW"}},{"type":"Feature","geometry":{"type":"Point","coordinates":[90.812472,22.241722]},"properties":{"name":"BHCAP1","tx":"MW"}},{"type":"Feature","geometry":{"type":"Point","coordinates":[90.623361,22.770639]},"properties":{"name":"BHCAT1","tx":"MW"}},{"type":"Feature","geometry":{"type":"Point","coordinates":[90.811722,22.190944]},"properties":{"name":"BHCAZ1","tx":"MW"}},{"type":"Feature","geometry":{"type":"Point","coordinates":[90.525417,22.04275]},"properties":{"name":"BHCBS1","tx":"MW"}},{"type":"Feature","geometry":{"type":"Point","coordinates":[90.771231,22.3093157]},"properties":{"name":"BHCBT1","tx":"MW"}},{"type":"Feature","geometry":{"type":"Point","coordinates":[90.70742,22.354828]},"properties":{"name":"BHCCN1","tx":"MW"}},{"type":"Feature","geometry":{"type":"Point","coordinates":[90.738167,22.606028]},"properties":{"name":"BHCDL1","tx":"MW"}},{"type":"Feature","geometry":{"type":"Point","coordinates":[90.657196,22.6099]},"properties":{"name":"BHCDL2","tx":"MW"}},{"type":"Feature","geometry":{"type":"Point","coordinates":[90.601444,22.583639]},"properties":{"name":"BHCDP1","tx":"MW"}},{"type":"Feature","geometry":{"type":"Point","coordinates":[90.586734,22.598049]},"properties":{"name":"BHCDP2","tx":"MW"}},{"type":"Feature","geometry":{"type":"Point","coordinates":[90.684917,22.61475]},"properties":{"name":"BHCDR1","tx":"MW"}},{"type":"Feature","geometry":{"type":"Point","coordinates":[90.787219,22.422404]},"properties":{"name":"BHCDS1","tx":"MW"}},{"type":"Feature","geometry":{"type":"Point","coordinates":[90.76775,22.41583]},"properties":{"name":"BHCDS2","tx":"MW"}},{"type":"Feature","geometry":{"type":"Point","coordinates":[90.758333,22.190278]},"properties":{"name":"BHCFN1","tx":"Fiber"}},{"type":"Feature","geometry":{"type":"Point","coordinates":[90.760237,22.185993]},"properties":{"name":"BHCFN2","tx":"MW"}},{"type":"Feature","geometry":{"type":"Point","coordinates":[90.759278,22.181917]},"properties":{"name":"BHCFN3","tx":"MW"}},{"type":"Feature","geometry":{"type":"Point","coordinates":[90.763889,22.184667]},"properties":{"name":"BHCFN4","tx":"MW"}},{"type":"Feature","geometry":{"type":"Point","coordinates":[90.756278,22.18625]},"properties":{"name":"BHCFN5","tx":"MW"}},{"type":"Feature","geometry":{"type":"Point","coordinates":[90.575,22.6165]},"properties":{"name":"BHCGZ1","tx":"MW"}},{"type":"Feature","geometry":{"type":"Point","coordinates":[90.718917,22.345139]},"properties":{"name":"BHCHK1","tx":"MW"}},{"type":"Feature","geometry":{"type":"Point","coordinates":[90.831083,22.44025]},"properties":{"name":"BHCHP1","tx":"MW"}},{"type":"Feature","geometry":{"type":"Point","coordinates":[90.673302,22.210853]},"properties":{"name":"BHCJM1","tx":"MW"}},{"type":"Feature","geometry":{"type":"Point","coordinates":[90.656083,22.209472]},"properties":{"name":"BHCJN1","tx":"MW"}},{"type":"Feature","geometry":{"type":"Point","coordinates":[90.970833,22.261417]},"properties":{"name":"BHCJT1","tx":"MW"}},{"type":"Feature","geometry":{"type":"Point","coordinates":[90.661861,22.020444]},"properties":{"name":"BHCKB1","tx":"MW"}},{"type":"Feature","geometry":{"type":"Point","coordinates":[90.7475,22.594611]},"properties":{"name":"BHCKF1","tx":"MW"}},{"type":"Feature","geometry":{"type":"Point","coordinates":[90.645833,21.932278]},"properties":{"name":"BHCKM1","tx":"MW"}},{"type":"Feature","geometry":{"type":"Point","coordinates":[90.594778,22.116389]},"properties":{"name":"BHCLL1","tx":"MW"}},{"type":"Feature","geometry":{"type":"Point","coordinates":[90.808111,22.315222]},"properties":{"name":"BHCLT1","tx":"MW"}},{"type":"Feature","geometry":{"type":"Point","coordinates":[90.642944,22.031047]},"properties":{"name":"BHCMB1","tx":"MW"}},{"type":"Feature","geometry":{"type":"Point","coordinates":[90.627278,22.092222]},"properties":{"name":"BHCMG1","tx":"MW"}},{"type":"Feature","geometry":{"type":"Point","coordinates":[90.79588,22.285604]},"properties":{"name":"BHCMJ1","tx":"MW"}},{"type":"Feature","geometry":{"type":"Point","coordinates":[90.810223,22.30174]},"properties":{"name":"BHCMJ2","tx":"MW"}},{"type":"Feature","geometry":{"type":"Point","coordinates":[90.632417,22.013417]},"properties":{"name":"BHCMK1","tx":"MW"}},{"type":"Feature","geometry":{"type":"Point","coordinates":[90.763083,22.102889]},"properties":{"name":"BHCMN1","tx":"Fiber"}},{"type":"Feature","geometry":{"type":"Point","coordinates":[90.5975,22.760778]},"properties":{"name":"BHCMS1","tx":"MW"}},{"type":"Feature","geometry":{"type":"Point","coordinates":[90.63232,22.69316]},"properties":{"name":"BHCNB1","tx":"MW"}},{"type":"Feature","geometry":{"type":"Point","coordinates":[90.836806,22.425889]},"properties":{"name":"BHCND1","tx":"MW"}},{"type":"Feature","geometry":{"type":"Point","coordinates":[90.937889,22.156833]},"properties":{"name":"BHCNK1","tx":"MW"}},{"type":"Feature","geometry":{"type":"Point","coordinates":[90.775083,22.147306]},"properties":{"name":"BHCNU1","tx":"MW"}},{"type":"Feature","geometry":{"type":"Point","coordinates":[90.621278,22.694139]},"properties":{"name":"BHCOS1","tx":"Fiber"}},{"type":"Feature","geometry":{"type":"Point","coordinates":[90.676198,22.638058]},"properties":{"name":"BHCPT1","tx":"MW"}},{"type":"Feature","geometry":{"type":"Point","coordinates":[90.582861,22.648722]},"properties":{"name":"BHCRS1","tx":"MW"}},{"type":"Feature","geometry":{"type":"Point","coordinates":[90.733472,22.567861]},"properties":{"name":"BHCSB1","tx":"MW"}},{"type":"Feature","geometry":{"type":"Point","coordinates":[90.621016,22.668456]},"properties":{"name":"BHCSL1","tx":"MW"}},{"type":"Feature","geometry":{"type":"Point","coordinates":[90.824972,22.325528]},"properties":{"name":"BHCTL1","tx":"MW"}},{"type":"Feature","geometry":{"type":"Point","coordinates":[90.750083,22.390167]},"properties":{"name":"BHDAO1","tx":"Fiber"}},{"type":"Feature","geometry":{"type":"Point","coordinates":[90.683056,22.46]},"properties":{"name":"BHDAR1","tx":"Fiber"}},{"type":"Feature","geometry":{"type":"Point","coordinates":[90.642167,22.593333]},"properties":{"name":"BHDBA1","tx":"MW"}},{"type":"Feature","geometry":{"type":"Point","coordinates":[90.68803,22.39448]},"properties":{"name":"BHDBC1","tx":"MW"}},{"type":"Feature","geometry":{"type":"Point","coordinates":[90.633591,22.582571]},"properties":{"name":"BHDBL1","tx":"MW"}},{"type":"Feature","geometry":{"type":"Point","coordinates":[90.625652,22.596429]},"properties":{"name":"BHDBL2","tx":"MW"}},{"type":"Feature","geometry":{"type":"Point","coordinates":[90.742694,22.542611]},"properties":{"name":"BHDBT1","tx":"MW"}},{"type":"Feature","geometry":{"type":"Point","coordinates":[90.82374,22.3643]},"properties":{"name":"BHDCC1","tx":"MW"}},{"type":"Feature","geometry":{"type":"Point","coordinates":[90.7723485,22.2190695]},"properties":{"name":"BHDCF1","tx":"MW"}},{"type":"Feature","geometry":{"type":"Point","coordinates":[90.784639,22.439333]},"properties":{"name":"BHDCL1","tx":"MW"}},{"type":"Feature","geometry":{"type":"Point","coordinates":[90.790239,22.451724]},"properties":{"name":"BHDCL2","tx":"MW"}},{"type":"Feature","geometry":{"type":"Point","coordinates":[90.692833,22.088778]},"properties":{"name":"BHDCM1","tx":"Fiber"}},{"type":"Feature","geometry":{"type":"Point","coordinates":[90.74162,21.90527]},"properties":{"name":"BHDHL1","tx":"MW"}},{"type":"Feature","geometry":{"type":"Point","coordinates":[90.61607,22.78521]},"properties":{"name":"BHDKB1","tx":"MW"}},{"type":"Feature","geometry":{"type":"Point","coordinates":[90.714667,22.606889]},"properties":{"name":"BHDKH1","tx":"MW"}},{"type":"Feature","geometry":{"type":"Point","coordinates":[90.746111,22.604167]},"properties":{"name":"BHDLK1","tx":"Fiber"}},{"type":"Feature","geometry":{"type":"Point","coordinates":[90.795722,22.491917]},"properties":{"name":"BHDLL1","tx":"Fiber"}},{"type":"Feature","geometry":{"type":"Point","coordinates":[90.787676,22.468692]},"properties":{"name":"BHDLP2","tx":"MW"}},{"type":"Feature","geometry":{"type":"Point","coordinates":[90.807833,22.424167]},"properties":{"name":"BHDRB1","tx":"Fiber"}},{"type":"Feature","geometry":{"type":"Point","coordinates":[90.63055,22.787815]},"properties":{"name":"BHDRP1","tx":"MW"}},{"type":"Feature","geometry":{"type":"Point","coordinates":[90.643972,22.14475]},"properties":{"name":"BHFBD1","tx":"MW"}},{"type":"Feature","geometry":{"type":"Point","coordinates":[90.632694,22.176222]},"properties":{"name":"BHFBD2","tx":"MW"}},{"type":"Feature","geometry":{"type":"Point","coordinates":[90.576194,22.726278]},"properties":{"name":"BHFGT1","tx":"MW"}},{"type":"Feature","geometry":{"type":"Point","coordinates":[90.796639,22.405972]},"properties":{"name":"BHFKB1","tx":"MW"}},{"type":"Feature","geometry":{"type":"Point","coordinates":[90.747306,22.435444]},"properties":{"name":"BHFKC1","tx":"MW"}},{"type":"Feature","geometry":{"type":"Point","coordinates":[90.695472,22.141611]},"properties":{"name":"BHFKH1","tx":"MW"}},{"type":"Feature","geometry":{"type":"Point","coordinates":[90.980472,22.217972]},"properties":{"name":"BHFKR1","tx":"MW"}},{"type":"Feature","geometry":{"type":"Point","coordinates":[90.747139,22.299944]},"properties":{"name":"BHFLB1","tx":"MW"}},{"type":"Feature","geometry":{"type":"Point","coordinates":[90.802869,22.227213]},"properties":{"name":"BHFMB1","tx":"MW"}},{"type":"Feature","geometry":{"type":"Point","coordinates":[90.81958,22.211249]},"properties":{"name":"BHFTB1","tx":"MW"}},{"type":"Feature","geometry":{"type":"Point","coordinates":[90.697564,22.289862]},"properties":{"name":"BHFZG1","tx":"MW"}},{"type":"Feature","geometry":{"type":"Point","coordinates":[90.666028,22.698472]},"properties":{"name":"BHGDW1","tx":"MW"}},{"type":"Feature","geometry":{"type":"Point","coordinates":[90.748278,22.579389]},"properties":{"name":"BHGHB1","tx":"MW"}},{"type":"Feature","geometry":{"type":"Point","coordinates":[90.676389,22.689917]},"properties":{"name":"BHGLI1","tx":"MW"}},{"type":"Feature","geometry":{"type":"Point","coordinates":[90.661639,22.625139]},"properties":{"name":"BHGNG1","tx":"MW"}},{"type":"Feature","geometry":{"type":"Point","coordinates":[90.706806,22.479167]},"properties":{"name":"BHGPC1","tx":"MW"}},{"type":"Feature","geometry":{"type":"Point","coordinates":[90.749661,22.563461]},"properties":{"name":"BHGPG1","tx":"MW"}},{"type":"Feature","geometry":{"type":"Point","coordinates":[90.71075,22.272583]},"properties":{"name":"BHGZR1","tx":"Fiber"}},{"type":"Feature","geometry":{"type":"Point","coordinates":[90.652667,22.159917]},"properties":{"name":"BHHJH1","tx":"Fiber"}},{"type":"Feature","geometry":{"type":"Point","coordinates":[90.979463,22.233474]},"properties":{"name":"BHHJT1","tx":"MW"}},{"type":"Feature","geometry":{"type":"Point","coordinates":[90.770139,22.346583]},"properties":{"name":"BHHRG1","tx":"Fiber"}},{"type":"Feature","geometry":{"type":"Point","coordinates":[90.78029,22.11291]},"properties":{"name":"BHHZG1","tx":"MW"}},{"type":"Feature","geometry":{"type":"Point","coordinates":[90.568861,22.639833]},"properties":{"name":"BHHZH1","tx":"MW"}},{"type":"Feature","geometry":{"type":"Point","coordinates":[90.685343,22.067672]},"properties":{"name":"BHICH1","tx":"Fiber"}},{"type":"Feature","geometry":{"type":"Point","coordinates":[90.64806,22.77631]},"properties":{"name":"BHILS1","tx":"Fiber"}},{"type":"Feature","geometry":{"type":"Point","coordinates":[90.605,22.745861]},"properties":{"name":"BHILS2","tx":"Fiber"}},{"type":"Feature","geometry":{"type":"Point","coordinates":[90.575139,22.767556]},"properties":{"name":"BHILS3","tx":"Fiber"}},{"type":"Feature","geometry":{"type":"Point","coordinates":[90.748139,22.129444]},"properties":{"name":"BHIMG1","tx":"MW"}},{"type":"Feature","geometry":{"type":"Point","coordinates":[90.732795,22.076206]},"properties":{"name":"BHJBH1","tx":"MW"}},{"type":"Feature","geometry":{"type":"Point","coordinates":[90.624022,22.626634]},"properties":{"name":"BHJGP1","tx":"MW"}},{"type":"Feature","geometry":{"type":"Point","coordinates":[90.679722,22.504167]},"properties":{"name":"BHJHT1","tx":"Fiber"}},{"type":"Feature","geometry":{"type":"Point","coordinates":[90.713639,22.374306]},"properties":{"name":"BHJNB1","tx":"MW"}},{"type":"Feature","geometry":{"type":"Point","coordinates":[90.603833,22.709333]},"properties":{"name":"BHJNG1","tx":"Fiber"}},{"type":"Feature","geometry":{"type":"Point","coordinates":[90.748111,22.234667]},"properties":{"name":"BHJNT1","tx":"Fiber"}},{"type":"Feature","geometry":{"type":"Point","coordinates":[90.600139,22.782361]},"properties":{"name":"BHJNT2","tx":"MW"}},{"type":"Feature","geometry":{"type":"Point","coordinates":[90.610186,22.062014]},"properties":{"name":"BHJNT3","tx":"Fiber"}},{"type":"Feature","geometry":{"type":"Point","coordinates":[90.759113,22.186194]},"properties":{"name":"BHJT1Z","tx":"Fiber"}},{"type":"Feature","geometry":{"type":"Point","coordinates":[90.744861,22.369417]},"properties":{"name":"BHKAL1","tx":"MW"}},{"type":"Feature","geometry":{"type":"Point","coordinates":[90.756007,22.454811]},"properties":{"name":"BHKCA1","tx":"MW"}},{"type":"Feature","geometry":{"type":"Point","coordinates":[90.74642,22.468129]},"properties":{"name":"BHKCA2","tx":"MW"}},{"type":"Feature","geometry":{"type":"Point","coordinates":[90.725955,22.464061]},"properties":{"name":"BHKCA3","tx":"MW"}},{"type":"Feature","geometry":{"type":"Point","coordinates":[90.738028,22.450833]},"properties":{"name":"BHKCH1","tx":"Fiber"}},{"type":"Feature","geometry":{"type":"Point","coordinates":[90.69609,22.26468]},"properties":{"name":"BHKCK1","tx":"MW"}},{"type":"Feature","geometry":{"type":"Point","coordinates":[90.733139,22.197083]},"properties":{"name":"BHKCM1","tx":"MW"}},{"type":"Feature","geometry":{"type":"Point","coordinates":[90.698222,22.337778]},"properties":{"name":"BHKCP1","tx":"MW"}},{"type":"Feature","geometry":{"type":"Point","coordinates":[90.67725,22.435306]},"properties":{"name":"BHKCR1","tx":"MW"}},{"type":"Feature","geometry":{"type":"Point","coordinates":[90.827284,22.301786]},"properties":{"name":"BHKDH1","tx":"MW"}},{"type":"Feature","geometry":{"type":"Point","coordinates":[90.609056,22.677694]},"properties":{"name":"BHKHG1","tx":"Fiber"}},{"type":"Feature","geometry":{"type":"Point","coordinates":[90.673806,22.543278]},"properties":{"name":"BHKHR1","tx":"Fiber"}},{"type":"Feature","geometry":{"type":"Point","coordinates":[90.751111,22.413528]},"properties":{"name":"BHKLB1","tx":"Fiber"}},{"type":"Feature","geometry":{"type":"Point","coordinates":[90.798639,22.345306]},"properties":{"name":"BHKLC1","tx":"MW"}},{"type":"Feature","geometry":{"type":"Point","coordinates":[90.72942,22.5873]},"properties":{"name":"BHKLK1","tx":"MW"}},{"type":"Feature","geometry":{"type":"Point","coordinates":[90.614,22.035028]},"properties":{"name":"BHKLM1","tx":"MW"}},{"type":"Feature","geometry":{"type":"Point","coordinates":[90.681621,22.042442]},"properties":{"name":"BHKMP1","tx":"MW"}},{"type":"Feature","geometry":{"type":"Point","coordinates":[90.768722,22.427556]},"properties":{"name":"BHKNJ1","tx":"Fiber"}},{"type":"Feature","geometry":{"type":"Point","coordinates":[90.655389,22.669472]},"properties":{"name":"BHKNT1","tx":"MW"}},{"type":"Feature","geometry":{"type":"Point","coordinates":[90.92749,22.14533]},"properties":{"name":"BHKRL1","tx":"MW"}},{"type":"Feature","geometry":{"type":"Point","coordinates":[90.771889,22.396889]},"properties":{"name":"BHKRM1","tx":"MW"}},{"type":"Feature","geometry":{"type":"Point","coordinates":[90.746667,22.262444]},"properties":{"name":"BHKRT1","tx":"MW"}},{"type":"Feature","geometry":{"type":"Point","coordinates":[90.708284,22.328266]},"properties":{"name":"BHKSG1","tx":"MW"}},{"type":"Feature","geometry":{"type":"Point","coordinates":[90.808417,22.383333]},"properties":{"name":"BHKSH1","tx":"Fiber"}},{"type":"Feature","geometry":{"type":"Point","coordinates":[90.744056,22.148639]},"properties":{"name":"BHKSM1","tx":"MW"}},{"type":"Feature","geometry":{"type":"Point","coordinates":[90.816722,22.448472]},"properties":{"name":"BHKSR1","tx":"Fiber"}},{"type":"Feature","geometry":{"type":"Point","coordinates":[90.760083,22.167167]},"properties":{"name":"BHKTG1","tx":"MW"}},{"type":"Feature","geometry":{"type":"Point","coordinates":[90.689889,22.593528]},"properties":{"name":"BHKYH1","tx":"MW"}},{"type":"Feature","geometry":{"type":"Point","coordinates":[90.71,22.58]},"properties":{"name":"BHKYH2","tx":"MW"}},{"type":"Feature","geometry":{"type":"Point","coordinates":[90.694778,22.631222]},"properties":{"name":"BHKZH1","tx":"MW"}},{"type":"Feature","geometry":{"type":"Point","coordinates":[90.814889,22.267194]},"properties":{"name":"BHLHD1","tx":"Fiber"}},{"type":"Feature","geometry":{"type":"Point","coordinates":[90.738611,22.336667]},"properties":{"name":"BHLMN1","tx":"Fiber"}},{"type":"Feature","geometry":{"type":"Point","coordinates":[90.735,22.3522]},"properties":{"name":"BHLMN2","tx":"MW"}},{"type":"Feature","geometry":{"type":"Point","coordinates":[90.733861,22.334639]},"properties":{"name":"BHLMN3","tx":"MW"}},{"type":"Feature","geometry":{"type":"Point","coordinates":[90.732056,22.341278]},"properties":{"name":"BHLMN4","tx":"MW"}},{"type":"Feature","geometry":{"type":"Point","coordinates":[90.6885,22.536778]},"properties":{"name":"BHLMP1","tx":"MW"}},{"type":"Feature","geometry":{"type":"Point","coordinates":[90.78775,22.324556]},"properties":{"name":"BHLNG1","tx":"MW"}},{"type":"Feature","geometry":{"type":"Point","coordinates":[90.753796,22.219924]},"properties":{"name":"BHMBD1","tx":"MW"}},{"type":"Feature","geometry":{"type":"Point","coordinates":[90.687861,22.650694]},"properties":{"name":"BHMBK1","tx":"MW"}},{"type":"Feature","geometry":{"type":"Point","coordinates":[90.699984,22.042404]},"properties":{"name":"BHMBM1","tx":"MW"}},{"type":"Feature","geometry":{"type":"Point","coordinates":[90.584556,22.783556]},"properties":{"name":"BHMDA1","tx":"MW"}},{"type":"Feature","geometry":{"type":"Point","coordinates":[90.633306,22.669028]},"properties":{"name":"BHMDB1","tx":"Fiber"}},{"type":"Feature","geometry":{"type":"Point","coordinates":[90.788611,22.162806]},"properties":{"name":"BHMDZ1","tx":"Fiber"}},{"type":"Feature","geometry":{"type":"Point","coordinates":[90.664306,22.108056]},"properties":{"name":"BHMGL1","tx":"MW"}},{"type":"Feature","geometry":{"type":"Point","coordinates":[90.823861,22.342361]},"properties":{"name":"BHMGS1","tx":"MW"}},{"type":"Feature","geometry":{"type":"Point","coordinates":[90.736702,22.346324]},"properties":{"name":"BHMHG1","tx":"MW"}},{"type":"Feature","geometry":{"type":"Point","coordinates":[90.699028,22.424556]},"properties":{"name":"BHMJM1","tx":"MW"}},{"type":"Feature","geometry":{"type":"Point","coordinates":[90.699045,22.563533]},"properties":{"name":"BHMJN1","tx":"MW"}},{"type":"Feature","geometry":{"type":"Point","coordinates":[90.768414,22.129144]},"properties":{"name":"BHMJP1","tx":"MW"}},{"type":"Feature","geometry":{"type":"Point","coordinates":[90.672833,22.226]},"properties":{"name":"BHMNH1","tx":"MW"}},{"type":"Feature","geometry":{"type":"Point","coordinates":[90.701944,22.522833]},"properties":{"name":"BHMNK1","tx":"MW"}},{"type":"Feature","geometry":{"type":"Point","coordinates":[90.677124,22.522137]},"properties":{"name":"BHMNK2","tx":"MW"}},{"type":"Feature","geometry":{"type":"Point","coordinates":[90.96884,22.24577]},"properties":{"name":"BHMNP1","tx":"MW"}},{"type":"Feature","geometry":{"type":"Point","coordinates":[90.725583,22.321972]},"properties":{"name":"BHMNS1","tx":"MW"}},{"type":"Feature","geometry":{"type":"Point","coordinates":[90.78829,22.43058]},"properties":{"name":"BHMUL1","tx":"MW"}},{"type":"Feature","geometry":{"type":"Point","coordinates":[90.800778,22.472]},"properties":{"name":"BHMZK1","tx":"Fiber"}},{"type":"Feature","geometry":{"type":"Point","coordinates":[90.673194,22.193722]},"properties":{"name":"BHNBD1","tx":"Fiber"}},{"type":"Feature","geometry":{"type":"Point","coordinates":[90.650306,22.684762]},"properties":{"name":"BHNBP1","tx":"MW"}},{"type":"Feature","geometry":{"type":"Point","coordinates":[90.825472,22.283083]},"properties":{"name":"BHNBZ1","tx":"Fiber"}},{"type":"Feature","geometry":{"type":"Point","coordinates":[90.64725,22.193778]},"properties":{"name":"BHNLK1","tx":"MW"}},{"type":"Feature","geometry":{"type":"Point","coordinates":[90.656667,22.176806]},"properties":{"name":"BHNRB1","tx":"MW"}},{"type":"Feature","geometry":{"type":"Point","coordinates":[90.714917,22.562861]},"properties":{"name":"BHNRM1","tx":"Fiber"}},{"type":"Feature","geometry":{"type":"Point","coordinates":[90.684444,22.35075]},"properties":{"name":"BHNZP1","tx":"MW"}},{"type":"Feature","geometry":{"type":"Point","coordinates":[90.744639,22.078222]},"properties":{"name":"BHOMB1","tx":"MW"}},{"type":"Feature","geometry":{"type":"Point","coordinates":[90.730778,22.102083]},"properties":{"name":"BHORB1","tx":"MW"}},{"type":"Feature","geometry":{"type":"Point","coordinates":[90.7749978,22.2954131]},"properties":{"name":"BHPCD1","tx":"MW"}},{"type":"Feature","geometry":{"type":"Point","coordinates":[90.636333,22.752139]},"properties":{"name":"BHPCI1","tx":"MW"}},{"type":"Feature","geometry":{"type":"Point","coordinates":[90.791527,22.147811]},"properties":{"name":"BHPCM1","tx":"MW"}},{"type":"Feature","geometry":{"type":"Point","coordinates":[90.710139,22.256222]},"properties":{"name":"BHPCU1","tx":"MW"}},{"type":"Feature","geometry":{"type":"Point","coordinates":[90.684389,22.124472]},"properties":{"name":"BHPEP1","tx":"MW"}},{"type":"Feature","geometry":{"type":"Point","coordinates":[90.709361,22.130194]},"properties":{"name":"BHPEP2","tx":"MW"}},{"type":"Feature","geometry":{"type":"Point","coordinates":[90.686543,22.107558]},"properties":{"name":"BHPEP3","tx":"MW"}},{"type":"Feature","geometry":{"type":"Point","coordinates":[90.591861,22.723389]},"properties":{"name":"BHPGS1","tx":"MW"}},{"type":"Feature","geometry":{"type":"Point","coordinates":[90.74644,22.06359]},"properties":{"name":"BHPKB1","tx":"MW"}},{"type":"Feature","geometry":{"type":"Point","coordinates":[90.72,22.52]},"properties":{"name":"BHPKS1","tx":"MW"}},{"type":"Feature","geometry":{"type":"Point","coordinates":[90.686917,22.248361]},"properties":{"name":"BHPNG1","tx":"Fiber"}},{"type":"Feature","geometry":{"type":"Point","coordinates":[90.71228,22.47689]},"properties":{"name":"BHPP1Z","tx":"MW"}},{"type":"Feature","geometry":{"type":"Point","coordinates":[90.633611,22.726111]},"properties":{"name":"BHPRG1","tx":"Fiber"}},{"type":"Feature","geometry":{"type":"Point","coordinates":[90.697,22.313472]},"properties":{"name":"BHPSK1","tx":"MW"}},{"type":"Feature","geometry":{"type":"Point","coordinates":[90.790361,22.267333]},"properties":{"name":"BHRCD1","tx":"Fiber"}},{"type":"Feature","geometry":{"type":"Point","coordinates":[90.770083,22.276417]},"properties":{"name":"BHRCD2","tx":"MW"}},{"type":"Feature","geometry":{"type":"Point","coordinates":[90.642028,22.642417]},"properties":{"name":"BHRHT1","tx":"MW"}},{"type":"Feature","geometry":{"type":"Point","coordinates":[90.814224,22.465404]},"properties":{"name":"BHRKS1","tx":"MW"}},{"type":"Feature","geometry":{"type":"Point","coordinates":[90.750296,22.280316]},"properties":{"name":"BHRMG1","tx":"MW"}},{"type":"Feature","geometry":{"type":"Point","coordinates":[90.980667,22.316722]},"properties":{"name":"BHRMN1","tx":"MW"}},{"type":"Feature","geometry":{"type":"Point","coordinates":[90.631583,22.613833]},"properties":{"name":"BHRRH1","tx":"Fiber"}},{"type":"Feature","geometry":{"type":"Point","coordinates":[90.6867038,22.3724107]},"properties":{"name":"BHRYB1","tx":"MW"}},{"type":"Feature","geometry":{"type":"Point","coordinates":[90.691083,22.173583]},"properties":{"name":"BHSBH1","tx":"MW"}},{"type":"Feature","geometry":{"type":"Point","coordinates":[90.801865,22.36253]},"properties":{"name":"BHSBP1","tx":"MW"}},{"type":"Feature","geometry":{"type":"Point","coordinates":[90.6,22.69]},"properties":{"name":"BHSC1I","tx":"MW"}},{"type":"Feature","geometry":{"type":"Point","coordinates":[90.65122,22.075406]},"properties":{"name":"BHSCM1","tx":"MW"}},{"type":"Feature","geometry":{"type":"Point","coordinates":[90.6,22.7]},"properties":{"name":"BHSDC1","tx":"MW"}},{"type":"Feature","geometry":{"type":"Point","coordinates":[90.648667,22.67775]},"properties":{"name":"BHSDR1","tx":"MW"}},{"type":"Feature","geometry":{"type":"Point","coordinates":[90.6537,22.68083]},"properties":{"name":"BHSDR2","tx":"MW"}},{"type":"Feature","geometry":{"type":"Point","coordinates":[90.64193,22.67441]},"properties":{"name":"BHSDR4","tx":"MW"}},{"type":"Feature","geometry":{"type":"Point","coordinates":[90.730889,22.425056]},"properties":{"name":"BHSHB1","tx":"MW"}},{"type":"Feature","geometry":{"type":"Point","coordinates":[90.682917,22.286167]},"properties":{"name":"BHSKD1","tx":"MW"}},{"type":"Feature","geometry":{"type":"Point","coordinates":[90.972243,22.38473]},"properties":{"name":"BHSLMM","tx":"MW"}},{"type":"Feature","geometry":{"type":"Point","coordinates":[90.789528,22.129528]},"properties":{"name":"BHSMZ1","tx":"MW"}},{"type":"Feature","geometry":{"type":"Point","coordinates":[90.984417,22.287694]},"properties":{"name":"BHSNC1","tx":"MW"}},{"type":"Feature","geometry":{"type":"Point","coordinates":[90.646583,22.567861]},"properties":{"name":"BHSNT1","tx":"Fiber"}},{"type":"Feature","geometry":{"type":"Point","coordinates":[90.617067,22.650602]},"properties":{"name":"BHSNT2","tx":"Fiber"}},{"type":"Feature","geometry":{"type":"Point","coordinates":[90.708167,22.107917]},"properties":{"name":"BHSSB1","tx":"Fiber"}},{"type":"Feature","geometry":{"type":"Point","coordinates":[90.727417,22.118833]},"properties":{"name":"BHSSB2","tx":"MW"}},{"type":"Feature","geometry":{"type":"Point","coordinates":[90.71,22.09]},"properties":{"name":"BHSSB3","tx":"MW"}},{"type":"Feature","geometry":{"type":"Point","coordinates":[90.690389,22.667667]},"properties":{"name":"BHSTH1","tx":"MW"}},{"type":"Feature","geometry":{"type":"Point","coordinates":[90.773056,22.456111]},"properties":{"name":"BHTAB1","tx":"MW"}},{"type":"Feature","geometry":{"type":"Point","coordinates":[90.76925,22.485833]},"properties":{"name":"BHTBG1","tx":"Fiber"}},{"type":"Feature","geometry":{"type":"Point","coordinates":[90.7695,22.46967]},"properties":{"name":"BHTBG2","tx":"MW"}},{"type":"Feature","geometry":{"type":"Point","coordinates":[90.848889,22.413611]},"properties":{"name":"BHTJM1","tx":"Fiber"}},{"type":"Feature","geometry":{"type":"Point","coordinates":[90.8535,22.419639]},"properties":{"name":"BHTJM2","tx":"MW"}},{"type":"Feature","geometry":{"type":"Point","coordinates":[90.676167,22.716111]},"properties":{"name":"BHTLT1","tx":"MW"}},{"type":"Feature","geometry":{"type":"Point","coordinates":[90.70443,22.23806]},"properties":{"name":"BHTPB1","tx":"MW"}},{"type":"Feature","geometry":{"type":"Point","coordinates":[90.75404,22.3175]},"properties":{"name":"BHTRG1","tx":"MW"}},{"type":"Feature","geometry":{"type":"Point","coordinates":[90.646389,22.683056]},"properties":{"name":"BHTWN1","tx":"Fiber"}},{"type":"Feature","geometry":{"type":"Point","coordinates":[90.653972,22.674694]},"properties":{"name":"BHTWN2","tx":"Fiber"}},{"type":"Feature","geometry":{"type":"Point","coordinates":[90.64175,22.688194]},"properties":{"name":"BHTWN3","tx":"Fiber"}},{"type":"Feature","geometry":{"type":"Point","coordinates":[90.642694,22.679778]},"properties":{"name":"BHTWN4","tx":"Fiber"}},{"type":"Feature","geometry":{"type":"Point","coordinates":[90.674028,22.670694]},"properties":{"name":"BHTWN5","tx":"MW"}},{"type":"Feature","geometry":{"type":"Point","coordinates":[90.648806,22.689889]},"properties":{"name":"BHTWN6","tx":"MW"}},{"type":"Feature","geometry":{"type":"Point","coordinates":[90.663111,22.656333]},"properties":{"name":"BHTWN7","tx":"Fiber"}},{"type":"Feature","geometry":{"type":"Point","coordinates":[90.645722,22.685722]},"properties":{"name":"BHTWN8","tx":"Fiber"}},{"type":"Feature","geometry":{"type":"Point","coordinates":[90.665472,22.650556]},"properties":{"name":"BHTWN9","tx":"Fiber"}},{"type":"Feature","geometry":{"type":"Point","coordinates":[90.66075,22.666222]},"properties":{"name":"BHTWNA","tx":"Fiber"}},{"type":"Feature","geometry":{"type":"Point","coordinates":[90.632444,22.6875]},"properties":{"name":"BHTWNB","tx":"MW"}},{"type":"Feature","geometry":{"type":"Point","coordinates":[90.648333,22.66575]},"properties":{"name":"BHTWNC","tx":"Fiber"}},{"type":"Feature","geometry":{"type":"Point","coordinates":[90.6445,22.691]},"properties":{"name":"BHTWND","tx":"Fiber"}},{"type":"Feature","geometry":{"type":"Point","coordinates":[90.712556,22.228583]},"properties":{"name":"BHUCF1","tx":"Fiber"}},{"type":"Feature","geometry":{"type":"Point","coordinates":[90.835806,22.381528]},"properties":{"name":"BHUCR1","tx":"MW"}},{"type":"Feature","geometry":{"type":"Point","coordinates":[90.66212,22.6388]},"properties":{"name":"BHUJN1","tx":"MW"}},{"type":"Feature","geometry":{"type":"Point","coordinates":[90.767556,22.253278]},"properties":{"name":"BHUMP1","tx":"MW"}},{"type":"Feature","geometry":{"type":"Point","coordinates":[90.58075,22.695083]},"properties":{"name":"BHVDR1","tx":"MW"}},{"type":"Feature","geometry":{"type":"Point","coordinates":[90.566722,22.708639]},"properties":{"name":"BHVDR2","tx":"MW"}},{"type":"Feature","geometry":{"type":"Point","coordinates":[90.591167,22.617222]},"properties":{"name":"BHVLM1","tx":"Fiber"}},{"type":"Feature","geometry":{"type":"Point","coordinates":[90.63825,22.686583]},"properties":{"name":"BHWST2","tx":"MW"}},{"type":"Feature","geometry":{"type":"Point","coordinates":[91.187231,23.977958]},"properties":{"name":"BMAD1Z","tx":"Fiber"}},{"type":"Feature","geometry":{"type":"Point","coordinates":[90.83873,23.8344]},"properties":{"name":"BMAGA1","tx":"Fiber"}},{"type":"Feature","geometry":{"type":"Point","coordinates":[91.017083,23.798889]},"properties":{"name":"BMAHM1","tx":"Fiber"}},{"type":"Feature","geometry":{"type":"Point","coordinates":[91.217046,23.889113]},"properties":{"name":"BMAJO1","tx":"Fiber"}},{"type":"Feature","geometry":{"type":"Point","coordinates":[91.221714,23.8981811]},"properties":{"name":"BMAJO2","tx":"MW"}},{"type":"Feature","geometry":{"type":"Point","coordinates":[91.204175,23.844109]},"properties":{"name":"BMAK2Z","tx":"Fiber"}},{"type":"Feature","geometry":{"type":"Point","coordinates":[91.207583,23.863333]},"properties":{"name":"BMAKA1","tx":"MW"}},{"type":"Feature","geometry":{"type":"Point","coordinates":[91.20225,23.819361]},"properties":{"name":"BMAKA2","tx":"MW"}},{"type":"Feature","geometry":{"type":"Point","coordinates":[91.199981,23.831481]},"properties":{"name":"BMAKA4","tx":"Fiber"}},{"type":"Feature","geometry":{"type":"Point","coordinates":[91.181333,23.867417]},"properties":{"name":"BMAKA5","tx":"MW"}},{"type":"Feature","geometry":{"type":"Point","coordinates":[91.204715,23.868077]},"properties":{"name":"BMAKAR","tx":"Fiber"}},{"type":"Feature","geometry":{"type":"Point","coordinates":[91.146528,24.084444]},"properties":{"name":"BMAKH1","tx":"MW"}},{"type":"Feature","geometry":{"type":"Point","coordinates":[91.14639,24.095]},"properties":{"name":"BMAKH2","tx":"MW"}},{"type":"Feature","geometry":{"type":"Point","coordinates":[91.14748,23.92436]},"properties":{"name":"BMALB1","tx":"MW"}},{"type":"Feature","geometry":{"type":"Point","coordinates":[91.076778,23.846139]},"properties":{"name":"BMAMD1","tx":"MW"}},{"type":"Feature","geometry":{"type":"Point","coordinates":[91.04293,24.160511]},"properties":{"name":"BMAOR1","tx":"MW"}},{"type":"Feature","geometry":{"type":"Point","coordinates":[91.051367,24.191167]},"properties":{"name":"BMAOR2","tx":"MW"}},{"type":"Feature","geometry":{"type":"Point","coordinates":[91.022778,24.170583]},"properties":{"name":"BMAOR3","tx":"MW"}},{"type":"Feature","geometry":{"type":"Point","coordinates":[91.028915,24.152148]},"properties":{"name":"BMAOR4","tx":"MW"}},{"type":"Feature","geometry":{"type":"Point","coordinates":[90.993531,24.159772]},"properties":{"name":"BMAOR5","tx":"MW"}},{"type":"Feature","geometry":{"type":"Point","coordinates":[91.035596,24.181803]},"properties":{"name":"BMAOR6","tx":"MW"}},{"type":"Feature","geometry":{"type":"Point","coordinates":[91.038808,24.141434]},"properties":{"name":"BMAOR7","tx":"MW"}},{"type":"Feature","geometry":{"type":"Point","coordinates":[91.0166111,24.0450556]},"properties":{"name":"BMAP2A","tx":"Fiber"}},{"type":"Feature","geometry":{"type":"Point","coordinates":[91.001028,24.011889]},"properties":{"name":"BMARA1","tx":"Fiber"}},{"type":"Feature","geometry":{"type":"Point","coordinates":[90.994421,24.014819]},"properties":{"name":"BMARA2","tx":"MW"}},{"type":"Feature","geometry":{"type":"Point","coordinates":[91.226864,24.000022]},"properties":{"name":"BMARB2","tx":"MW"}},{"type":"Feature","geometry":{"type":"Point","coordinates":[91.23336,24.01414]},"properties":{"name":"BMARL1","tx":"Fiber"}},{"type":"Feature","geometry":{"type":"Point","coordinates":[90.815278,23.780528]},"properties":{"name":"BMASA1","tx":"Fiber"}},{"type":"Feature","geometry":{"type":"Point","coordinates":[91.003972,24.04075]},"properties":{"name":"BMASG1","tx":"Fiber"}},{"type":"Feature","geometry":{"type":"Point","coordinates":[91.013599,24.039297]},"properties":{"name":"BMASG2","tx":"Fiber"}},{"type":"Feature","geometry":{"type":"Point","coordinates":[90.98656,24.01759]},"properties":{"name":"BMASG3","tx":"MW"}},{"type":"Feature","geometry":{"type":"Point","coordinates":[90.999189,24.033987]},"properties":{"name":"BMASG4","tx":"MW"}},{"type":"Feature","geometry":{"type":"Point","coordinates":[91.004222,24.032046]},"properties":{"name":"BMASG5","tx":"Fiber"}},{"type":"Feature","geometry":{"type":"Point","coordinates":[91.00877,24.03605]},"properties":{"name":"BMASG6","tx":"Fiber"}},{"type":"Feature","geometry":{"type":"Point","coordinates":[91.0084167,24.0429444]},"properties":{"name":"BMASG7","tx":"Fiber"}},{"type":"Feature","geometry":{"type":"Point","coordinates":[90.995417,24.026111]},"properties":{"name":"BMASG8","tx":"Fiber"}},{"type":"Feature","geometry":{"type":"Point","coordinates":[91.2733,24.21807]},"properties":{"name":"BMATK1","tx":"Fiber"}},{"type":"Feature","geometry":{"type":"Point","coordinates":[91.260405,23.971736]},"properties":{"name":"BMAUL1","tx":"MW"}},{"type":"Feature","geometry":{"type":"Point","coordinates":[91.246047,23.969897]},"properties":{"name":"BMAUL2","tx":"MW"}},{"type":"Feature","geometry":{"type":"Point","coordinates":[90.792451,23.785131]},"properties":{"name":"BMBAN1","tx":"Fiber"}},{"type":"Feature","geometry":{"type":"Point","coordinates":[90.9916,23.78778]},"properties":{"name":"BMBAN2","tx":"Fiber"}},{"type":"Feature","geometry":{"type":"Point","coordinates":[90.800411,23.771961]},"properties":{"name":"BMBAN3","tx":"MW"}},{"type":"Feature","geometry":{"type":"Point","coordinates":[90.790891,23.765617]},"properties":{"name":"BMBAN4","tx":"MW"}},{"type":"Feature","geometry":{"type":"Point","coordinates":[90.999997,23.940492]},"properties":{"name":"BMBAR1","tx":"MW"}},{"type":"Feature","geometry":{"type":"Point","coordinates":[91.146444,23.681528]},"properties":{"name":"BMBAY1","tx":"Fiber"}},{"type":"Feature","geometry":{"type":"Point","coordinates":[91.17588,23.67543]},"properties":{"name":"BMBAY3","tx":"Fiber"}},{"type":"Feature","geometry":{"type":"Point","coordinates":[91.17,23.68]},"properties":{"name":"BMBAY4","tx":"MW"}},{"type":"Feature","geometry":{"type":"Point","coordinates":[91.17796,23.849372]},"properties":{"name":"BMBBP1","tx":"Fiber"}},{"type":"Feature","geometry":{"type":"Point","coordinates":[90.728889,23.736667]},"properties":{"name":"BMBCH1","tx":"Fiber"}},{"type":"Feature","geometry":{"type":"Point","coordinates":[90.73984,23.74887]},"properties":{"name":"BMBCH2","tx":"MW"}},{"type":"Feature","geometry":{"type":"Point","coordinates":[91.146528,24.06975]},"properties":{"name":"BMBCR1","tx":"MW"}},{"type":"Feature","geometry":{"type":"Point","coordinates":[91.168861,24.084003]},"properties":{"name":"BMBDA1","tx":"MW"}},{"type":"Feature","geometry":{"type":"Point","coordinates":[91.12209,23.94998]},"properties":{"name":"BMBDG1","tx":"MW"}},{"type":"Feature","geometry":{"type":"Point","coordinates":[91.123286,23.945468]},"properties":{"name":"BMBDG2","tx":"MW"}},{"type":"Feature","geometry":{"type":"Point","coordinates":[91.13,23.95]},"properties":{"name":"BMBDG3","tx":"MW"}},{"type":"Feature","geometry":{"type":"Point","coordinates":[91.052861,23.958306]},"properties":{"name":"BMBDK1","tx":"Fiber"}},{"type":"Feature","geometry":{"type":"Point","coordinates":[91.129933,23.80709]},"properties":{"name":"BMBDR1","tx":"MW"}},{"type":"Feature","geometry":{"type":"Point","coordinates":[91.117722,24.092444]},"properties":{"name":"BMBG1B","tx":"Fiber"}},{"type":"Feature","geometry":{"type":"Point","coordinates":[91.1947306,23.6823055]},"properties":{"name":"BMBG1Y","tx":"Fiber"}},{"type":"Feature","geometry":{"type":"Point","coordinates":[91.11525,23.945444]},"properties":{"name":"BMBHA1","tx":"Fiber"}},{"type":"Feature","geometry":{"type":"Point","coordinates":[91.027333,23.929417]},"properties":{"name":"BMBHN1","tx":"MW"}},{"type":"Feature","geometry":{"type":"Point","coordinates":[91.043111,23.909417]},"properties":{"name":"BMBID1","tx":"Fiber"}},{"type":"Feature","geometry":{"type":"Point","coordinates":[91.035123,23.906044]},"properties":{"name":"BMBID2","tx":"Fiber"}},{"type":"Feature","geometry":{"type":"Point","coordinates":[90.96453,23.95005]},"properties":{"name":"BMBIG1","tx":"MW"}},{"type":"Feature","geometry":{"type":"Point","coordinates":[90.97425,23.950611]},"properties":{"name":"BMBIR1","tx":"Fiber"}},{"type":"Feature","geometry":{"type":"Point","coordinates":[90.852222,23.829167]},"properties":{"name":"BMBIS1","tx":"Fiber"}},{"type":"Feature","geometry":{"type":"Point","coordinates":[91.038222,23.834694]},"properties":{"name":"BMBIT1","tx":"Fiber"}},{"type":"Feature","geometry":{"type":"Point","coordinates":[90.970389,23.851056]},"properties":{"name":"BMBIT2","tx":"MW"}},{"type":"Feature","geometry":{"type":"Point","coordinates":[91.05697,23.83574]},"properties":{"name":"BMBIT3","tx":"Fiber"}},{"type":"Feature","geometry":{"type":"Point","coordinates":[90.98117,23.8402]},"properties":{"name":"BMBIT4","tx":"MW"}},{"type":"Feature","geometry":{"type":"Point","coordinates":[91.127222,24.021389]},"properties":{"name":"BMBKB1","tx":"Fiber"}},{"type":"Feature","geometry":{"type":"Point","coordinates":[90.96081,23.93539]},"properties":{"name":"BMBKK1","tx":"MW"}},{"type":"Feature","geometry":{"type":"Point","coordinates":[90.97846,23.93835]},"properties":{"name":"BMBKK2","tx":"MW"}},{"type":"Feature","geometry":{"type":"Point","coordinates":[90.79477,23.778116]},"properties":{"name":"BMBN2Z","tx":"Fiber"}},{"type":"Feature","geometry":{"type":"Point","coordinates":[91.163157,23.804839]},"properties":{"name":"BMBNT1","tx":"MW"}},{"type":"Feature","geometry":{"type":"Point","coordinates":[90.861673,23.782939]},"properties":{"name":"BMBO1Z","tx":"Fiber"}},{"type":"Feature","geometry":{"type":"Point","coordinates":[91.06212,24.05274]},"properties":{"name":"BMBOG1","tx":"MW"}},{"type":"Feature","geometry":{"type":"Point","coordinates":[91.129139,23.896833]},"properties":{"name":"BMBRA1","tx":"Fiber"}},{"type":"Feature","geometry":{"type":"Point","coordinates":[91.08035,24.064516]},"properties":{"name":"BMBRB1","tx":"MW"}},{"type":"Feature","geometry":{"type":"Point","coordinates":[91.09157,24.20797]},"properties":{"name":"BMBRC1","tx":"MW"}},{"type":"Feature","geometry":{"type":"Point","coordinates":[90.873056,23.857111]},"properties":{"name":"BMBRK1","tx":"MW"}},{"type":"Feature","geometry":{"type":"Point","coordinates":[90.861959,23.848903]},"properties":{"name":"BMBRK2","tx":"MW"}},{"type":"Feature","geometry":{"type":"Point","coordinates":[91.05034,23.99119]},"properties":{"name":"BMBRN1","tx":"MW"}},{"type":"Feature","geometry":{"type":"Point","coordinates":[91.115371,23.892436]},"properties":{"name":"BMBRP1","tx":"MW"}},{"type":"Feature","geometry":{"type":"Point","coordinates":[91.147413,24.053213]},"properties":{"name":"BMBRR1","tx":"MW"}},{"type":"Feature","geometry":{"type":"Point","coordinates":[91.105972,23.982444]},"properties":{"name":"BMBRS1","tx":"MW"}},{"type":"Feature","geometry":{"type":"Point","coordinates":[91.100554,23.982648]},"properties":{"name":"BMBRS2","tx":"Fiber"}},{"type":"Feature","geometry":{"type":"Point","coordinates":[91.064861,24.145056]},"properties":{"name":"BMBSR1","tx":"Fiber"}},{"type":"Feature","geometry":{"type":"Point","coordinates":[91.107722,23.957833]},"properties":{"name":"BMBTV1","tx":"Fiber"}},{"type":"Feature","geometry":{"type":"Point","coordinates":[91.280289,24.031906]},"properties":{"name":"BMBUA1","tx":"MW"}},{"type":"Feature","geometry":{"type":"Point","coordinates":[91.265389,24.076278]},"properties":{"name":"BMBUD1","tx":"Fiber"}},{"type":"Feature","geometry":{"type":"Point","coordinates":[91.247891,24.059943]},"properties":{"name":"BMBUD2","tx":"MW"}},{"type":"Feature","geometry":{"type":"Point","coordinates":[91.275365,24.082609]},"properties":{"name":"BMBUD3","tx":"MW"}},{"type":"Feature","geometry":{"type":"Point","coordinates":[91.231778,24.04425]},"properties":{"name":"BMCAD1","tx":"Fiber"}},{"type":"Feature","geometry":{"type":"Point","coordinates":[91.2437,24.0337]},"properties":{"name":"BMCAD2","tx":"Fiber"}},{"type":"Feature","geometry":{"type":"Point","coordinates":[90.7687503,23.7598621]},"properties":{"name":"BMCC1Z","tx":"Fiber"}},{"type":"Feature","geometry":{"type":"Point","coordinates":[90.763945,23.778139]},"properties":{"name":"BMCCB1","tx":"MW"}},{"type":"Feature","geometry":{"type":"Point","coordinates":[91.11907,24.0443]},"properties":{"name":"BMCDA1","tx":"Fiber"}},{"type":"Feature","geometry":{"type":"Point","coordinates":[91.178214,23.770931]},"properties":{"name":"BMCDD1","tx":"MW"}},{"type":"Feature","geometry":{"type":"Point","coordinates":[91.1539,23.7568]},"properties":{"name":"BMCDD2","tx":"MW"}},{"type":"Feature","geometry":{"type":"Point","coordinates":[91.17061,23.76487]},"properties":{"name":"BMCDD3","tx":"MW"}},{"type":"Feature","geometry":{"type":"Point","coordinates":[91.236306,24.053833]},"properties":{"name":"BMCDR1","tx":"MW"}},{"type":"Feature","geometry":{"type":"Point","coordinates":[91.088083,23.810028]},"properties":{"name":"BMCHA1","tx":"MW"}},{"type":"Feature","geometry":{"type":"Point","coordinates":[91.144167,23.914083]},"properties":{"name":"BMCHA2","tx":"Fiber"}},{"type":"Feature","geometry":{"type":"Point","coordinates":[91.089389,23.835861]},"properties":{"name":"BMCHA3","tx":"MW"}},{"type":"Feature","geometry":{"type":"Point","coordinates":[91.09081,23.84672]},"properties":{"name":"BMCHA4","tx":"MW"}},{"type":"Feature","geometry":{"type":"Point","coordinates":[91.18959,23.88874]},"properties":{"name":"BMCHD1","tx":"MW"}},{"type":"Feature","geometry":{"type":"Point","coordinates":[91.161991,23.898072]},"properties":{"name":"BMCHI1","tx":"MW"}},{"type":"Feature","geometry":{"type":"Point","coordinates":[91.218445,23.969056]},"properties":{"name":"BMCHO1","tx":"Fiber"}},{"type":"Feature","geometry":{"type":"Point","coordinates":[91.240944,23.936306]},"properties":{"name":"BMCHO2","tx":"Fiber"}},{"type":"Feature","geometry":{"type":"Point","coordinates":[91.212167,23.954861]},"properties":{"name":"BMCHO3","tx":"Fiber"}},{"type":"Feature","geometry":{"type":"Point","coordinates":[91.228211,23.975253]},"properties":{"name":"BMCHO4","tx":"Fiber"}},{"type":"Feature","geometry":{"type":"Point","coordinates":[91.231352,23.951482]},"properties":{"name":"BMCHO5","tx":"MW"}},{"type":"Feature","geometry":{"type":"Point","coordinates":[91.173061,23.905997]},"properties":{"name":"BMCHP1","tx":"MW"}},{"type":"Feature","geometry":{"type":"Point","coordinates":[90.959972,23.804861]},"properties":{"name":"BMCHR1","tx":"MW"}},{"type":"Feature","geometry":{"type":"Point","coordinates":[91.082278,24.119333]},"properties":{"name":"BMCHU1","tx":"Fiber"}},{"type":"Feature","geometry":{"type":"Point","coordinates":[90.7739,23.770898]},"properties":{"name":"BMCK1Z","tx":"Fiber"}},{"type":"Feature","geometry":{"type":"Point","coordinates":[91.114083,23.96525]},"properties":{"name":"BMCLG1","tx":"Fiber"}},{"type":"Feature","geometry":{"type":"Point","coordinates":[91.217861,23.995528]},"properties":{"name":"BMCNB1","tx":"Fiber"}},{"type":"Feature","geometry":{"type":"Point","coordinates":[91.272619,24.184967]},"properties":{"name":"BMCPT1","tx":"MW"}},{"type":"Feature","geometry":{"type":"Point","coordinates":[91.042444,23.884806]},"properties":{"name":"BMCRL1","tx":"Fiber"}},{"type":"Feature","geometry":{"type":"Point","coordinates":[90.77425,23.800806]},"properties":{"name":"BMCSP1","tx":"Fiber"}},{"type":"Feature","geometry":{"type":"Point","coordinates":[91.056403,24.109855]},"properties":{"name":"BMCTA1","tx":"MW"}},{"type":"Feature","geometry":{"type":"Point","coordinates":[91.078444,24.211444]},"properties":{"name":"BMCTP1","tx":"Fiber"}},{"type":"Feature","geometry":{"type":"Point","coordinates":[91.058723,24.209745]},"properties":{"name":"BMCTP2","tx":"Fiber"}},{"type":"Feature","geometry":{"type":"Point","coordinates":[91.21,23.97]},"properties":{"name":"BMCTR1","tx":"MW"}},{"type":"Feature","geometry":{"type":"Point","coordinates":[91.171472,24.173806]},"properties":{"name":"BMDAN1","tx":"Fiber"}},{"type":"Feature","geometry":{"type":"Point","coordinates":[91.186372,24.170493]},"properties":{"name":"BMDAN2","tx":"MW"}},{"type":"Feature","geometry":{"type":"Point","coordinates":[90.7597618,23.748219]},"properties":{"name":"BMDAR1","tx":"Fiber"}},{"type":"Feature","geometry":{"type":"Point","coordinates":[90.799805,23.801229]},"properties":{"name":"BMDAW1","tx":"MW"}},{"type":"Feature","geometry":{"type":"Point","coordinates":[90.887917,23.770611]},"properties":{"name":"BMDBC1","tx":"Fiber"}},{"type":"Feature","geometry":{"type":"Point","coordinates":[90.798972,23.828556]},"properties":{"name":"BMDDL1","tx":"Fiber"}},{"type":"Feature","geometry":{"type":"Point","coordinates":[91.207628,23.855056]},"properties":{"name":"BMDEB1","tx":"MW"}},{"type":"Feature","geometry":{"type":"Point","coordinates":[91.100306,23.784389]},"properties":{"name":"BMDEL1","tx":"MW"}},{"type":"Feature","geometry":{"type":"Point","coordinates":[91.05258,23.78454]},"properties":{"name":"BMDEL2","tx":"MW"}},{"type":"Feature","geometry":{"type":"Point","coordinates":[91.084648,23.773221]},"properties":{"name":"BMDEL3","tx":"MW"}},{"type":"Feature","geometry":{"type":"Point","coordinates":[90.996222,23.888944]},"properties":{"name":"BMDGD1","tx":"MW"}},{"type":"Feature","geometry":{"type":"Point","coordinates":[91.05264,24.05696]},"properties":{"name":"BMDGP1","tx":"Fiber"}},{"type":"Feature","geometry":{"type":"Point","coordinates":[91.13425,23.844333]},"properties":{"name":"BMDHA1","tx":"Fiber"}},{"type":"Feature","geometry":{"type":"Point","coordinates":[91.305,24.235167]},"properties":{"name":"BMDHM1","tx":"Fiber"}},{"type":"Feature","geometry":{"type":"Point","coordinates":[90.779281,23.78195]},"properties":{"name":"BMDKD1","tx":"MW"}},{"type":"Feature","geometry":{"type":"Point","coordinates":[90.784407,23.778857]},"properties":{"name":"BMDKD2","tx":"MW"}},{"type":"Feature","geometry":{"type":"Point","coordinates":[91.214112,23.802289]},"properties":{"name":"BMDKL1","tx":"MW"}},{"type":"Feature","geometry":{"type":"Point","coordinates":[90.930972,23.816667]},"properties":{"name":"BMDLA1","tx":"MW"}},{"type":"Feature","geometry":{"type":"Point","coordinates":[90.78051,23.84116]},"properties":{"name":"BMDLM1","tx":"Fiber"}},{"type":"Feature","geometry":{"type":"Point","coordinates":[90.98415,23.91214]},"properties":{"name":"BMDLP1","tx":"MW"}},{"type":"Feature","geometry":{"type":"Point","coordinates":[91.317224,24.238701]},"properties":{"name":"BMDM1Z","tx":"Fiber"}},{"type":"Feature","geometry":{"type":"Point","coordinates":[91.12256,23.95309]},"properties":{"name":"BMDPB1","tx":"MW"}},{"type":"Feature","geometry":{"type":"Point","coordinates":[90.849611,23.866139]},"properties":{"name":"BMDRB1","tx":"Fiber"}},{"type":"Feature","geometry":{"type":"Point","coordinates":[90.773583,23.724861]},"properties":{"name":"BMDRC1","tx":"MW"}},{"type":"Feature","geometry":{"type":"Point","coordinates":[91.137556,24.03175]},"properties":{"name":"BMDRM1","tx":"Fiber"}},{"type":"Feature","geometry":{"type":"Point","coordinates":[90.9848,23.8289]},"properties":{"name":"BMEKG1","tx":"Fiber"}},{"type":"Feature","geometry":{"type":"Point","coordinates":[90.883111,23.75275]},"properties":{"name":"BMFAR1","tx":"Fiber"}},{"type":"Feature","geometry":{"type":"Point","coordinates":[90.741218,23.762516]},"properties":{"name":"BMFR1Z","tx":"Fiber"}},{"type":"Feature","geometry":{"type":"Point","coordinates":[90.752806,23.760667]},"properties":{"name":"BMFRG1","tx":"MW"}},{"type":"Feature","geometry":{"type":"Point","coordinates":[90.853318,23.755245]},"properties":{"name":"BMFTM1","tx":"MW"}},{"type":"Feature","geometry":{"type":"Point","coordinates":[91.187412,24.017212]},"properties":{"name":"BMGAR1","tx":"MW"}},{"type":"Feature","geometry":{"type":"Point","coordinates":[91.099,23.983]},"properties":{"name":"BMGF1A","tx":"Fiber"}},{"type":"Feature","geometry":{"type":"Point","coordinates":[91.1361,24.0578]},"properties":{"name":"BMGGD1","tx":"MW"}},{"type":"Feature","geometry":{"type":"Point","coordinates":[91.160472,23.875972]},"properties":{"name":"BMGHT1","tx":"MW"}},{"type":"Feature","geometry":{"type":"Point","coordinates":[91.238417,23.848389]},"properties":{"name":"BMGJB1","tx":"MW"}},{"type":"Feature","geometry":{"type":"Point","coordinates":[91.086611,23.960944]},"properties":{"name":"BMGKR1","tx":"Fiber"}},{"type":"Feature","geometry":{"type":"Point","coordinates":[91.08308,23.95406]},"properties":{"name":"BMGKR2","tx":"Fiber"}},{"type":"Feature","geometry":{"type":"Point","coordinates":[91.257455,23.988216]},"properties":{"name":"BMGLM1","tx":"Fiber"}},{"type":"Feature","geometry":{"type":"Point","coordinates":[91.14391,24.23356]},"properties":{"name":"BMGNG1","tx":"MW"}},{"type":"Feature","geometry":{"type":"Point","coordinates":[91.120717,23.919419]},"properties":{"name":"BMGOB1","tx":"MW"}},{"type":"Feature","geometry":{"type":"Point","coordinates":[91.197,24.137139]},"properties":{"name":"BMGOK1","tx":"MW"}},{"type":"Feature","geometry":{"type":"Point","coordinates":[91.1843,24.14149]},"properties":{"name":"BMGOK2","tx":"MW"}},{"type":"Feature","geometry":{"type":"Point","coordinates":[91.1744,23.792167]},"properties":{"name":"BMGOP1","tx":"MW"}},{"type":"Feature","geometry":{"type":"Point","coordinates":[90.942472,23.86025]},"properties":{"name":"BMGOP2","tx":"Fiber"}},{"type":"Feature","geometry":{"type":"Point","coordinates":[91.202917,23.763583]},"properties":{"name":"BMGOP3","tx":"MW"}},{"type":"Feature","geometry":{"type":"Point","coordinates":[90.933111,23.877917]},"properties":{"name":"BMGPP1","tx":"MW"}},{"type":"Feature","geometry":{"type":"Point","coordinates":[90.998833,23.961361]},"properties":{"name":"BMGRN1","tx":"MW"}},{"type":"Feature","geometry":{"type":"Point","coordinates":[90.986724,23.957559]},"properties":{"name":"BMGRN2","tx":"MW"}},{"type":"Feature","geometry":{"type":"Point","coordinates":[91.130611,23.782639]},"properties":{"name":"BMGRV1","tx":"Fiber"}},{"type":"Feature","geometry":{"type":"Point","coordinates":[91.10619,24.004521]},"properties":{"name":"BMGTG1","tx":"Fiber"}},{"type":"Feature","geometry":{"type":"Point","coordinates":[91.257278,24.15075]},"properties":{"name":"BMGUN1","tx":"Fiber"}},{"type":"Feature","geometry":{"type":"Point","coordinates":[91.25253,24.17772]},"properties":{"name":"BMGUN2","tx":"MW"}},{"type":"Feature","geometry":{"type":"Point","coordinates":[91.270347,24.163472]},"properties":{"name":"BMGUN3","tx":"MW"}},{"type":"Feature","geometry":{"type":"Point","coordinates":[91.006503,23.793233]},"properties":{"name":"BMHAJ1","tx":"MW"}},{"type":"Feature","geometry":{"type":"Point","coordinates":[91.069515,23.985134]},"properties":{"name":"BMHAL1","tx":"MW"}},{"type":"Feature","geometry":{"type":"Point","coordinates":[91.257253,24.112267]},"properties":{"name":"BMHAR1","tx":"Fiber"}},{"type":"Feature","geometry":{"type":"Point","coordinates":[90.811194,23.742306]},"properties":{"name":"BMHDN1","tx":"MW"}},{"type":"Feature","geometry":{"type":"Point","coordinates":[91.110564,23.977116]},"properties":{"name":"BMHO1A","tx":"Fiber"}},{"type":"Feature","geometry":{"type":"Point","coordinates":[91.303972,24.01775]},"properties":{"name":"BMHOR1","tx":"MW"}},{"type":"Feature","geometry":{"type":"Point","coordinates":[91.11391,24.05017]},"properties":{"name":"BMICH1","tx":"Fiber"}},{"type":"Feature","geometry":{"type":"Point","coordinates":[91.176917,23.996917]},"properties":{"name":"BMISL1","tx":"Fiber"}},{"type":"Feature","geometry":{"type":"Point","coordinates":[91.012639,24.017389]},"properties":{"name":"BMJAT1","tx":"Fiber"}},{"type":"Feature","geometry":{"type":"Point","coordinates":[91.096417,24.159833]},"properties":{"name":"BMJDK1","tx":"MW"}},{"type":"Feature","geometry":{"type":"Point","coordinates":[91.10766,24.16069]},"properties":{"name":"BMJDK2","tx":"MW"}},{"type":"Feature","geometry":{"type":"Point","coordinates":[91.075094,24.174583]},"properties":{"name":"BMJDK3","tx":"MW"}},{"type":"Feature","geometry":{"type":"Point","coordinates":[91.211472,24.139694]},"properties":{"name":"BMJET1","tx":"Fiber"}},{"type":"Feature","geometry":{"type":"Point","coordinates":[91.190528,23.783361]},"properties":{"name":"BMJGP1","tx":"MW"}},{"type":"Feature","geometry":{"type":"Point","coordinates":[90.984639,23.810861]},"properties":{"name":"BMJND1","tx":"Fiber"}},{"type":"Feature","geometry":{"type":"Point","coordinates":[91.135611,23.904833]},"properties":{"name":"BMJSR1","tx":"Fiber"}},{"type":"Feature","geometry":{"type":"Point","coordinates":[91.1554,23.742]},"properties":{"name":"BMKA1Z","tx":"Fiber"}},{"type":"Feature","geometry":{"type":"Point","coordinates":[91.067528,23.812514]},"properties":{"name":"BMKAI1","tx":"Fiber"}},{"type":"Feature","geometry":{"type":"Point","coordinates":[91.103145,24.083058]},"properties":{"name":"BMKAK1","tx":"Fiber"}},{"type":"Feature","geometry":{"type":"Point","coordinates":[91.076192,23.961148]},"properties":{"name":"BMKAL1","tx":"MW"}},{"type":"Feature","geometry":{"type":"Point","coordinates":[91.145583,23.748]},"properties":{"name":"BMKAS1","tx":"Fiber"}},{"type":"Feature","geometry":{"type":"Point","coordinates":[91.149167,23.744722]},"properties":{"name":"BMKAS2","tx":"Fiber"}},{"type":"Feature","geometry":{"type":"Point","coordinates":[91.14,23.76]},"properties":{"name":"BMKAS5","tx":"MW"}},{"type":"Feature","geometry":{"type":"Point","coordinates":[91.26063,23.93664]},"properties":{"name":"BMKCR1","tx":"Fiber"}},{"type":"Feature","geometry":{"type":"Point","coordinates":[91.14,23.93286]},"properties":{"name":"BMKCT1","tx":"MW"}},{"type":"Feature","geometry":{"type":"Point","coordinates":[90.9083,23.80578]},"properties":{"name":"BMKGT1","tx":"MW"}},{"type":"Feature","geometry":{"type":"Point","coordinates":[91.1098,23.976996]},"properties":{"name":"BMKH1A","tx":"Fiber"}},{"type":"Feature","geometry":{"type":"Point","coordinates":[91.290056,24.191111]},"properties":{"name":"BMKHD1","tx":"MW"}},{"type":"Feature","geometry":{"type":"Point","coordinates":[90.868583,23.800361]},"properties":{"name":"BMKHL1","tx":"Fiber"}},{"type":"Feature","geometry":{"type":"Point","coordinates":[90.85829,23.808877]},"properties":{"name":"BMKHL2","tx":"MW"}},{"type":"Feature","geometry":{"type":"Point","coordinates":[91.3054,24.1964]},"properties":{"name":"BMKHN1","tx":"MW"}},{"type":"Feature","geometry":{"type":"Point","coordinates":[91.272528,23.985833]},"properties":{"name":"BMKHT1","tx":"Fiber"}},{"type":"Feature","geometry":{"type":"Point","coordinates":[91.118239,24.082697]},"properties":{"name":"BMKK1Z","tx":"Fiber"}},{"type":"Feature","geometry":{"type":"Point","coordinates":[91.116036,24.095324]},"properties":{"name":"BMKK2Z","tx":"Fiber"}},{"type":"Feature","geometry":{"type":"Point","coordinates":[91.107007,24.108358]},"properties":{"name":"BMKKC1","tx":"MW"}},{"type":"Feature","geometry":{"type":"Point","coordinates":[90.824217,23.799994]},"properties":{"name":"BMKLN1","tx":"MW"}},{"type":"Feature","geometry":{"type":"Point","coordinates":[91.125583,23.705389]},"properties":{"name":"BMKMP1","tx":"Fiber"}},{"type":"Feature","geometry":{"type":"Point","coordinates":[91.144593,23.712241]},"properties":{"name":"BMKMP2","tx":"MW"}},{"type":"Feature","geometry":{"type":"Point","coordinates":[91.12517,23.71346]},"properties":{"name":"BMKMP3","tx":"MW"}},{"type":"Feature","geometry":{"type":"Point","coordinates":[91.151556,24.153528]},"properties":{"name":"BMKND1","tx":"MW"}},{"type":"Feature","geometry":{"type":"Point","coordinates":[90.999445,23.868917]},"properties":{"name":"BMKNK1","tx":"Fiber"}},{"type":"Feature","geometry":{"type":"Point","coordinates":[90.80545,23.839897]},"properties":{"name":"BMKOL1","tx":"MW"}},{"type":"Feature","geometry":{"type":"Point","coordinates":[91.22822,23.82157]},"properties":{"name":"BMKOR1","tx":"MW"}},{"type":"Feature","geometry":{"type":"Point","coordinates":[91.057853,24.050631]},"properties":{"name":"BMKR1Z","tx":"Fiber"}},{"type":"Feature","geometry":{"type":"Point","coordinates":[91.05639,23.92343]},"properties":{"name":"BMKRG1","tx":"Fiber"}},{"type":"Feature","geometry":{"type":"Point","coordinates":[91.011,23.938945]},"properties":{"name":"BMKRI1","tx":"Fiber"}},{"type":"Feature","geometry":{"type":"Point","coordinates":[90.990833,23.925806]},"properties":{"name":"BMKRI2","tx":"Fiber"}},{"type":"Feature","geometry":{"type":"Point","coordinates":[91.214778,23.792806]},"properties":{"name":"BMKRM1","tx":"Fiber"}},{"type":"Feature","geometry":{"type":"Point","coordinates":[90.989592,23.947398]},"properties":{"name":"BMKRN1","tx":"MW"}},{"type":"Feature","geometry":{"type":"Point","coordinates":[91.102167,23.7585]},"properties":{"name":"BMKSB1","tx":"MW"}},{"type":"Feature","geometry":{"type":"Point","coordinates":[91.110531,23.977021]},"properties":{"name":"BMKSH1","tx":"Fiber"}},{"type":"Feature","geometry":{"type":"Point","coordinates":[91.11,23.98]},"properties":{"name":"BMKSH2","tx":"MW"}},{"type":"Feature","geometry":{"type":"Point","coordinates":[91.10764,23.97523]},"properties":{"name":"BMKSH3","tx":"MW"}},{"type":"Feature","geometry":{"type":"Point","coordinates":[91.05,24.16]},"properties":{"name":"BMKSL1","tx":"MW"}},{"type":"Feature","geometry":{"type":"Point","coordinates":[91.208528,23.882917]},"properties":{"name":"BMKSM1","tx":"MW"}},{"type":"Feature","geometry":{"type":"Point","coordinates":[90.775504,23.747955]},"properties":{"name":"BMKSN1","tx":"MW"}},{"type":"Feature","geometry":{"type":"Point","coordinates":[91.112081,23.989994]},"properties":{"name":"BMKSR1","tx":"Fiber"}},{"type":"Feature","geometry":{"type":"Point","coordinates":[90.956972,23.819444]},"properties":{"name":"BMKTH1","tx":"MW"}},{"type":"Feature","geometry":{"type":"Point","coordinates":[91.140088,24.18688]},"properties":{"name":"BMKUN1","tx":"MW"}},{"type":"Feature","geometry":{"type":"Point","coordinates":[91.07675,23.737278]},"properties":{"name":"BMKUT1","tx":"Fiber"}},{"type":"Feature","geometry":{"type":"Point","coordinates":[91.143028,23.799194]},"properties":{"name":"BMKUT2","tx":"Fiber"}},{"type":"Feature","geometry":{"type":"Point","coordinates":[91.116982,23.771112]},"properties":{"name":"BMKUT3","tx":"Fiber"}},{"type":"Feature","geometry":{"type":"Point","coordinates":[91.07392,23.743089]},"properties":{"name":"BMKUT4","tx":"Fiber"}},{"type":"Feature","geometry":{"type":"Point","coordinates":[91.080832,23.754851]},"properties":{"name":"BMKUT5","tx":"MW"}},{"type":"Feature","geometry":{"type":"Point","coordinates":[90.982556,23.985281]},"properties":{"name":"BMLAL1","tx":"Fiber"}},{"type":"Feature","geometry":{"type":"Point","coordinates":[90.98064,23.96682]},"properties":{"name":"BMLAL2","tx":"Fiber"}},{"type":"Feature","geometry":{"type":"Point","coordinates":[91.006403,23.813556]},"properties":{"name":"BMLAU1","tx":"Fiber"}},{"type":"Feature","geometry":{"type":"Point","coordinates":[91.01536,23.806155]},"properties":{"name":"BMLAU2","tx":"MW"}},{"type":"Feature","geometry":{"type":"Point","coordinates":[90.92625,23.838194]},"properties":{"name":"BMLHR1","tx":"MW"}},{"type":"Feature","geometry":{"type":"Point","coordinates":[91.066444,24.131389]},"properties":{"name":"BMLPR1","tx":"Fiber"}},{"type":"Feature","geometry":{"type":"Point","coordinates":[91.225249,24.174694]},"properties":{"name":"BMLXP1","tx":"MW"}},{"type":"Feature","geometry":{"type":"Point","coordinates":[90.751756,23.740834]},"properties":{"name":"BMMAN1","tx":"MW"}},{"type":"Feature","geometry":{"type":"Point","coordinates":[90.839944,23.804806]},"properties":{"name":"BMMAS1","tx":"Fiber"}},{"type":"Feature","geometry":{"type":"Point","coordinates":[91.119398,24.156727]},"properties":{"name":"BMMB1Z","tx":"Fiber"}},{"type":"Feature","geometry":{"type":"Point","coordinates":[91.127517,23.684414]},"properties":{"name":"BMMBB1","tx":"MW"}},{"type":"Feature","geometry":{"type":"Point","coordinates":[91.159954,23.908705]},"properties":{"name":"BMMCH1","tx":"Fiber"}},{"type":"Feature","geometry":{"type":"Point","coordinates":[90.821194,23.812083]},"properties":{"name":"BMMDN1","tx":"Fiber"}},{"type":"Feature","geometry":{"type":"Point","coordinates":[91.110472,23.805028]},"properties":{"name":"BMMDP1","tx":"Fiber"}},{"type":"Feature","geometry":{"type":"Point","coordinates":[91.096759,23.797648]},"properties":{"name":"BMMDP2","tx":"MW"}},{"type":"Feature","geometry":{"type":"Point","coordinates":[91.197,23.800611]},"properties":{"name":"BMMEN1","tx":"MW"}},{"type":"Feature","geometry":{"type":"Point","coordinates":[91.19011,23.80746]},"properties":{"name":"BMMEN2","tx":"MW"}},{"type":"Feature","geometry":{"type":"Point","coordinates":[91.025222,23.897306]},"properties":{"name":"BMMER1","tx":"Fiber"}},{"type":"Feature","geometry":{"type":"Point","coordinates":[91.29827,24.044361]},"properties":{"name":"BMMGS1","tx":"MW"}},{"type":"Feature","geometry":{"type":"Point","coordinates":[91.083605,24.017789]},"properties":{"name":"BMMHN1","tx":"Fiber"}},{"type":"Feature","geometry":{"type":"Point","coordinates":[91.072917,23.79825]},"properties":{"name":"BMMHR1","tx":"Fiber"}},{"type":"Feature","geometry":{"type":"Point","coordinates":[90.829083,23.774861]},"properties":{"name":"BMMIR1","tx":"Fiber"}},{"type":"Feature","geometry":{"type":"Point","coordinates":[91.097986,23.721836]},"properties":{"name":"BMMJK1","tx":"MW"}},{"type":"Feature","geometry":{"type":"Point","coordinates":[91.09377,23.73779]},"properties":{"name":"BMMJK2","tx":"MW"}},{"type":"Feature","geometry":{"type":"Point","coordinates":[91.159329,23.775396]},"properties":{"name":"BMMJL1","tx":"MW"}},{"type":"Feature","geometry":{"type":"Point","coordinates":[91.1492,23.788273]},"properties":{"name":"BMMJL2","tx":"MW"}},{"type":"Feature","geometry":{"type":"Point","coordinates":[91.005833,23.905]},"properties":{"name":"BMMLA1","tx":"Fiber"}},{"type":"Feature","geometry":{"type":"Point","coordinates":[91.09339,24.04713]},"properties":{"name":"BMMLH1","tx":"Fiber"}},{"type":"Feature","geometry":{"type":"Point","coordinates":[91.105577,23.970824]},"properties":{"name":"BMMLV1","tx":"MW"}},{"type":"Feature","geometry":{"type":"Point","coordinates":[90.8356285,23.8136721]},"properties":{"name":"BMMN1Z","tx":"Fiber"}},{"type":"Feature","geometry":{"type":"Point","coordinates":[90.782444,23.758083]},"properties":{"name":"BMMNK1","tx":"MW"}},{"type":"Feature","geometry":{"type":"Point","coordinates":[91.103194,23.977694]},"properties":{"name":"BMMNP1","tx":"MW"}},{"type":"Feature","geometry":{"type":"Point","coordinates":[91.101361,23.932889]},"properties":{"name":"BMMPB1","tx":"Fiber"}},{"type":"Feature","geometry":{"type":"Point","coordinates":[90.792194,23.850528]},"properties":{"name":"BMMRK1","tx":"Fiber"}},{"type":"Feature","geometry":{"type":"Point","coordinates":[91.2289,23.91828]},"properties":{"name":"BMMRL1","tx":"MW"}},{"type":"Feature","geometry":{"type":"Point","coordinates":[91.023639,23.8515]},"properties":{"name":"BMMRP1","tx":"Fiber"}},{"type":"Feature","geometry":{"type":"Point","coordinates":[91.1616,24.15265]},"properties":{"name":"BMMSL1","tx":"MW"}},{"type":"Feature","geometry":{"type":"Point","coordinates":[91.059444,24.034389]},"properties":{"name":"BMMSR1","tx":"MW"}},{"type":"Feature","geometry":{"type":"Point","coordinates":[91.284397,24.092147]},"properties":{"name":"BMMTB1","tx":"Fiber"}},{"type":"Feature","geometry":{"type":"Point","coordinates":[91.08941,23.86275]},"properties":{"name":"BMMUG1","tx":"MW"}},{"type":"Feature","geometry":{"type":"Point","coordinates":[91.094556,23.823833]},"properties":{"name":"BMMUL1","tx":"MW"}},{"type":"Feature","geometry":{"type":"Point","coordinates":[90.968611,23.888722]},"properties":{"name":"BMNAB1","tx":"Fiber"}},{"type":"Feature","geometry":{"type":"Point","coordinates":[90.902778,23.830028]},"properties":{"name":"BMNAB2","tx":"Fiber"}},{"type":"Feature","geometry":{"type":"Point","coordinates":[90.97188,23.873842]},"properties":{"name":"BMNAB3","tx":"MW"}},{"type":"Feature","geometry":{"type":"Point","coordinates":[90.951344,23.904556]},"properties":{"name":"BMNAB4","tx":"MW"}},{"type":"Feature","geometry":{"type":"Point","coordinates":[90.970422,23.88205]},"properties":{"name":"BMNAB5","tx":"MW"}},{"type":"Feature","geometry":{"type":"Point","coordinates":[90.956556,23.887972]},"properties":{"name":"BMNAB6","tx":"MW"}},{"type":"Feature","geometry":{"type":"Point","coordinates":[90.97137,23.89345]},"properties":{"name":"BMNAB7","tx":"Fiber"}},{"type":"Feature","geometry":{"type":"Point","coordinates":[90.96969,23.88526]},"properties":{"name":"BMNAB8","tx":"MW"}},{"type":"Feature","geometry":{"type":"Point","coordinates":[91.176385,24.191393]},"properties":{"name":"BMNAN1","tx":"MW"}},{"type":"Feature","geometry":{"type":"Point","coordinates":[91.064278,23.970361]},"properties":{"name":"BMNAR1","tx":"Fiber"}},{"type":"Feature","geometry":{"type":"Point","coordinates":[91.075174,23.964956]},"properties":{"name":"BMNAR2","tx":"MW"}},{"type":"Feature","geometry":{"type":"Point","coordinates":[91.197778,24.195611]},"properties":{"name":"BMNAS1","tx":"Fiber"}},{"type":"Feature","geometry":{"type":"Point","coordinates":[91.233583,24.191639]},"properties":{"name":"BMNAS2","tx":"MW"}},{"type":"Feature","geometry":{"type":"Point","coordinates":[91.209514,24.205824]},"properties":{"name":"BMNAS3","tx":"MW"}},{"type":"Feature","geometry":{"type":"Point","coordinates":[91.14725,24.034583]},"properties":{"name":"BMNAT1","tx":"Fiber"}},{"type":"Feature","geometry":{"type":"Point","coordinates":[90.86983,23.82368]},"properties":{"name":"BMNAY1","tx":"Fiber"}},{"type":"Feature","geometry":{"type":"Point","coordinates":[90.875111,23.736306]},"properties":{"name":"BMNCK1","tx":"Fiber"}},{"type":"Feature","geometry":{"type":"Point","coordinates":[91.2938,24.01438]},"properties":{"name":"BMNDB1","tx":"MW"}},{"type":"Feature","geometry":{"type":"Point","coordinates":[91.064631,23.899519]},"properties":{"name":"BMNGT1","tx":"MW"}},{"type":"Feature","geometry":{"type":"Point","coordinates":[91.0624,23.91205]},"properties":{"name":"BMNGT2","tx":"Fiber"}},{"type":"Feature","geometry":{"type":"Point","coordinates":[91.1126,24.0336]},"properties":{"name":"BMNND1","tx":"Fiber"}},{"type":"Feature","geometry":{"type":"Point","coordinates":[91.070194,23.859778]},"properties":{"name":"BMNOA1","tx":"MW"}},{"type":"Feature","geometry":{"type":"Point","coordinates":[90.89792,23.82155]},"properties":{"name":"BMNOG1","tx":"MW"}},{"type":"Feature","geometry":{"type":"Point","coordinates":[91.115611,23.819583]},"properties":{"name":"BMNOP1","tx":"Fiber"}},